id,stn,name,country,latitude,longitude,elevation
1,25105,"DATSAV3 VIRT STATION (SINGAPORE)",SINGAPORE,1.383,103.717,0
2,170220,ZONGULDAK,TURKEY,41.45,31.8,137
3,170240,INEBOLU,TURKEY,41.983,33.783,64
4,170260,SINOP,TURKEY,42.033,35.167,32
5,170300,SAMSUN,TURKEY,41.283,36.3,4
6,170310,CARSAMBA/SAMSUN,TURKEY,41.25,36.55,7
7,170340,GIRESUN,TURKEY,40.917,38.383,37
8,170380,TRABZON,TURKEY,41,39.717,34
9,170420,HOPA,TURKEY,41.4,41.433,33
10,170500,EDIRNE,TURKEY,41.667,26.567,51
11,170560,TEKIRDAG,TURKEY,40.983,27.55,3
12,170575,CORLU,TURKEY,41.133,27.917,179
13,170600,ISTANBUL/ATATURK,TURKEY,40.967,28.817,37
14,170660,"DATSAV3 VIRT STATION (TURKEY)",TURKEY,37,35.433,0
15,170670,GOLCUK/DUMLUPINAR,TURKEY,40.667,29.833,18
16,170671,KAPADOKYA,TURKEY,38.767,34.533,969
17,170672,YENISEHIR,TURKEY,40.25,29.55,239
18,170673,CARSAMBA,TURKEY,41.25,36.567,6
19,170674,"SABIHA GOKCEN",TURKEY,40.9,29.3,98
20,170700,BOLU,TURKEY,40.733,31.6,743
21,170820,MERZIFON,TURKEY,40.85,35.583,535
22,170840,CORUM,TURKEY,40.55,34.95,776
23,170860,TOKAT,TURKEY,40.3,36.567,608
24,170880,GUMUSHANE,TURKEY,40.467,39.467,1219
25,170900,SIVAS,TURKEY,39.75,37.017,1285
26,170920,ERZINCAN,TURKEY,39.7,39.517,1154
27,170960,ERZURUM,TURKEY,39.95,41.167,1758
28,170980,KARS,TURKEY,40.55,43.083,1795
29,171100,GOKCEADA,TURKEY,40.183,25.9,72
30,171120,CANAKKALE,TURKEY,40.133,26.4,6
31,171150,BANDIRMA,TURKEY,40.317,27.967,42
32,171160,BURSA,TURKEY,40.183,29.067,100
33,171200,BILECIK,TURKEY,40.15,29.967,539
34,171240,ESKISEHIR,TURKEY,39.783,30.567,786
35,171270,AKINCI,TURKEY,40.067,32.567,840
36,171280,ESENBOGA,TURKEY,40.117,33,949
37,171290,ETIMESGUT,TURKEY,39.95,32.683,806
38,171295,GUVERCINLIK,TURKEY,39.933,32.732,842
39,171350,KIRIKKALE,TURKEY,39.85,33.517,748
40,171400,YOZGAT,TURKEY,39.817,34.8,1298
41,171500,BALIKESIR,TURKEY,39.617,27.917,102
42,171550,KUTAHYA,TURKEY,39.417,29.967,969
43,171600,KIRSEHIR,TURKEY,39.15,34.167,1007
44,171700,VAN,TURKEY,38.45,43.317,1662
45,171750,AYVALIK,TURKEY,39.3,26.7,4
46,171800,DIKILI,TURKEY,39.067,26.883,3
47,171840,AKHISAR,TURKEY,38.917,27.85,93
48,171880,USAK,TURKEY,38.683,29.4,919
49,171890,AFYONKARAHISAR,TURKEY,38.733,30.6,1012
50,171900,AFYON,TURKEY,38.75,30.533,1034
51,171905,"AFYON (MIL)",TURKEY,38.733,30.6,1010
52,171950,KAYSERI/ERKILET,TURKEY,38.817,35.433,1054
53,171990,MALATYA/BOLGE,TURKEY,38.35,38.317,948
54,172000,MALATYA/ERHAC,TURKEY,38.433,38.083,849
55,172005,TOPEL,TURKEY,40.733,30.083,57
56,172020,ELAZIG,TURKEY,38.6,39.283,881
57,172050,TATVAN,TURKEY,38.483,42.3,1665
58,172100,SIIRT,TURKEY,37.933,41.95,896
59,172180,IZMIR/CIGLI,TURKEY,38.517,27.017,5
60,172190,"IZMIR/A. MENDERES",TURKEY,38.267,27.15,120
61,172340,AYDIN,TURKEY,37.85,27.85,56
62,172370,DENIZLI,TURKEY,37.783,29.083,425
63,172400,ISPARTA,TURKEY,37.75,30.55,997
64,172410,"SULEYMAN DEMIREL",TURKEY,37.85,30.367,886
65,172440,KONYA,TURKEY,37.967,32.549,1031
66,172480,EREGLI/KONYA,TURKEY,37.5,34.05,1044
67,172500,NIGDE,TURKEY,37.967,34.683,1210
68,172600,GAZIANTEP,TURKEY,37.083,37.367,701
69,172700,SANLIURFA,TURKEY,37.133,38.767,549
70,172720,SANLIURFA/MEYDAN,TURKEY,37.1,38.85,452
71,172734,"MILAS BODRUM",TURKEY,37.25,27.667,7
72,172800,DIYARBAKIR,TURKEY,37.883,40.183,677
73,172900,BODRUM,TURKEY,37.033,27.433,26
74,172920,MUGLA,TURKEY,37.217,28.367,646
75,172950,DALAMAN,TURKEY,36.7,28.783,9
76,173000,ANTALYA,TURKEY,36.867,30.733,54
77,173100,ALANYA,TURKEY,36.55,32,6
78,173200,ANAMUR,TURKEY,36.083,32.833,4
79,173300,SILIFKE,TURKEY,36.383,33.933,15
80,173500,"ADANA/INCIRLIK AFB",TURKEY,37,35.417,75.9
81,173520,ADANA,TURKEY,36.983,35.3,20
82,173700,ISKENDERUN,TURKEY,36.583,36.167,4
83,173750,FINIKE,TURKEY,36.3,30.15,2
84,286790,PETROPAVLOVSK,KAZAKHSTAN,54.833,69.15,136
85,287660,BLACOVESCHENKA,KAZAKHSTAN,54.367,66.967,153
86,287850,"VOZVISHEN SOVKHOZ",KAZAKHSTAN,54.433,70.917,127
87,288670,URICKY,KAZAKHSTAN,53.317,65.55,210
88,288770,VOLODARSKOE,KAZAKHSTAN,53.317,68.1,319
89,288790,KOKSHETAY,KAZAKHSTAN,53.283,69.383,229
90,289520,KUSTANAI,KAZAKHSTAN,53.217,63.617,156
91,289570,TOBOL,KAZAKHSTAN,52.683,62.6,208
92,289780,BALKASINO,KAZAKHSTAN,52.533,68.75,399
93,289840,SUCINSK,KAZAKHSTAN,52.95,70.217,384
94,298070,IRTYSHSK,KAZAKHSTAN,53.35,75.45,94
95,343980,ZHALPAKTAL,KAZAKHSTAN,49.667,49.483,10
96,345810,URDA,KAZAKHSTAN,48.767,47.433,4
97,346910,"NOVYJ USHTOGAN",KAZAKHSTAN,47.9,48.8,-10
98,347980,GANJUSHKINO,KAZAKHSTAN,46.6,49.267,-23
99,350420,ZABELOVKA,KAZAKHSTAN,52.3,61.317,279
100,350530,KUSMURUN,KAZAKHSTAN,52.467,64.667,110
101,350670,ESIL,KAZAKHSTAN,51.883,66.333,221
102,350780,ATBASAR,KAZAKHSTAN,51.817,68.367,304
103,350850,AKKOL,KAZAKHSTAN,52,70.95,384
104,351080,URALSK,KAZAKHSTAN,51.25,51.283,37
105,351730,ZHALTYR,KAZAKHSTAN,51.617,69.8,305
106,351880,ASTANA,KAZAKHSTAN,51.133,71.367,350
107,351910,JERMENTAU,KAZAKHSTAN,51.633,73.167,397
108,352170,DZHAMBEJTY,KAZAKHSTAN,50.25,52.567,32
109,352290,AKTOBE,KAZAKHSTAN,50.283,57.15,219
110,353020,CHAPAEVO,KAZAKHSTAN,50.2,51.167,17
111,353210,NOVOALEKSJEVKA,KAZAKHSTAN,50.133,55.7,142
112,353450,TAMABULAK,KAZAKHSTAN,49.983,61.483,221
113,353610,AMANGELDY,KAZAKHSTAN,50.133,65.233,142
114,353630,ARKALYK,KAZAKHSTAN,50.217,66.833,343
115,353760,BERLIK,KAZAKHSTAN,49.883,69.517,349
116,353860,KAZGORODOK,KAZAKHSTAN,49.95,71.583,422
117,353940,KARAGANDA,KAZAKHSTAN,49.8,73.15,553
118,353946,ZVARTNOTS,ARMENIA,40.15,44.4,865
119,354060,TAIPAK,KAZAKHSTAN,49.05,51.867,2
120,354160,UIL,KAZAKHSTAN,49.067,54.683,128
121,354260,TEMIR,KAZAKHSTAN,49.15,57.117,234
122,354590,BISARY,KAZAKHSTAN,48.817,64.617,122
123,354970,ZHARYK,KAZAKHSTAN,48.85,72.867,656
124,355320,MUGODZARSKAJA,KAZAKHSTAN,48.633,58.5,398
125,355420,IRGIZ,KAZAKHSTAN,48.617,61.267,114
126,355490,TAUP,KAZAKHSTAN,48.25,62,74
127,355760,KZYLZAR,KAZAKHSTAN,48.3,69.65,361
128,355820,ATASU,KAZAKHSTAN,48.7,71.633,488
129,356050,MAHAMBET,KAZAKHSTAN,47.667,51.583,-15
130,356330,CELKAR,KAZAKHSTAN,47.85,59.617,176
131,356710,ZHEZKAZGAN,KAZAKHSTAN,47.8,67.717,346
132,356990,BEKTAUATA,KAZAKHSTAN,47.45,74.817,620
133,357000,ATYRAU,KAZAKHSTAN,47.117,51.917,-22
134,357390,AYAK-KUM,KAZAKHSTAN,46.717,59.167,114
135,357460,"ARALSKOE MORE",KAZAKHSTAN,46.783,61.65,62
136,357560,KARA-KUM,KAZAKHSTAN,46.883,64.667,79
137,357910,MOINTY,KAZAKHSTAN,47.2,73.35,581
138,357960,BALHASH,KAZAKHSTAN,46.8,75.083,350
139,358490,KAZALINSK,KAZAKHSTAN,45.767,62.117,68
140,358840,"BETPAK-DALA STEPPE",KAZAKHSTAN,46,70,325
141,359250,SAM,KAZAKHSTAN,45.4,56.117,88
142,359530,DZHUSALY,KAZAKHSTAN,45.5,64.083,103
143,359690,ZLIKHA,KAZAKHSTAN,45.25,67.067,138
144,359970,CIGANAK,KAZAKHSTAN,45.1,73.967,349
145,360010,EKIBASTUZ,KAZAKHSTAN,51.7,75.367,234
146,360030,PAVLODAR,KAZAKHSTAN,52.3,76.933,122
147,361520,SEMIJARKA,KAZAKHSTAN,50.867,78.35,149
148,361770,SEMIPALATINSK,KAZAKHSTAN,50.417,80.3,196
149,361860,SEMONAIHA,KAZAKHSTAN,50.633,81.917,320
150,362080,LENINOGORSK,KAZAKHSTAN,50.333,83.55,811
151,363350,KARKARALINSK,KAZAKHSTAN,49.383,75.517,812
152,363970,ZHANGIZTOBE,KAZAKHSTAN,49.217,81.217,455
153,364280,"BOLSHE NARYMSKOE",KAZAKHSTAN,49.2,84.517,401
154,364390,KATON-KARAGAJ,KAZAKHSTAN,49.183,85.617,1081
155,364420,KATUN,KAZAKHSTAN,49.733,86.55,1800
156,365350,KOKPEKTY,KAZAKHSTAN,48.75,82.367,512
157,366220,AJAGUZ,KAZAKHSTAN,47.967,80.45,655
158,366390,URDZHAR,KAZAKHSTAN,47.117,81.617,491
159,367440,AUL,KAZAKHSTAN,45.633,75.117,353
160,367780,TALDY-KURGAN,KAZAKHSTAN,45,78.383,602
161,368215,"KOKSHETAU AIRPORT",KAZAKHSTAN,53.317,69.6,263
162,368590,ZHARKENT,KAZAKHSTAN,44.167,80.067,645
163,368700,ALMATY,KAZAKHSTAN,43.233,76.933,851
164,369820,TIAN-SHAN,KYRGYZSTAN,41.883,78.233,3639
165,372600,SUHUMI,GEORGIA,42.867,41.133,13
166,373950,KUTAISI,GEORGIA,42.267,42.633,116
167,374320,PASANAURI,GEORGIA,42.35,44.7,1064
168,375450,TBILISI,GEORGIA,41.7,44.75,403
169,375490,TBILISI,GEORGIA,41.683,44.95,448
170,375530,TELAVI,GEORGIA,41.933,45.383,562
171,375750,ZAKATALA,AZERBAIJAN,41.667,46.65,490
172,376820,AMASIA,ARMENIA,40.783,43.833,1866
173,377090,SEVAN,ARMENIA,40.55,44.933,1937
174,377880,"YEREVAN ZVARTNOTS",ARMENIA,40.15,44.383,854
175,377890,YEREVAN/YEREVAN-ARA,ARMENIA,40.133,44.467,1140
176,378630,GYANDZHA,AZERBAIJAN,40.733,46.4,330
177,378635,NAKCHIVAN,AZERBAIJAN,39.2,45.45,873
178,378640,"BAKU/BINA AIRPORT",AZERBAIJAN,40.45,50.067,-1
179,379070,FIZULY,AZERBAIJAN,39.6,47.15,439
180,379850,LANKARAN,AZERBAIJAN,38.733,48.833,-12
181,380010,"FORT SHEVCHENKO",KAZAKHSTAN,44.55,50.25,-25
182,380190,DUKEN,KAZAKHSTAN,44.317,54.6,143
183,380490,CIRIK-RABAT,KAZAKHSTAN,44.067,62.9,88
184,380620,KYZYLORDA,KAZAKHSTAN,44.85,65.5,130
185,380810,TASTY,KAZAKHSTAN,44.8,69.117,190
186,380910,ULANBEL`,KAZAKHSTAN,44.8,71.067,266
187,381110,SEVCENKO,KAZAKHSTAN,43.583,51.083,-15
188,381410,JASLYK,UZBEKISTAN,43.883,57.517,128
189,381411,ATYRAU,KAZAKHSTAN,47.117,51.817,-23
190,381412,TURKMENBASHI,TURKMENISTAN,40.05,53,87
191,381413,KHUDZHAND,TAJIKISTAN,40.217,69.683,453
192,381415,BUKHARA,UZBEKISTAN,39.767,64.467,235
193,381417,"KARSHI KHANABAD",UZBEKISTAN,38.833,65.917,1365
194,381490,KUNGRAD,UZBEKISTAN,43.083,58.933,64
195,381780,AK-BAJTAL,UZBEKISTAN,43.15,64.333,234
196,381960,ACHISAJ,KAZAKHSTAN,43.55,68.9,822
197,381980,TURKESTAN,KAZAKHSTAN,43.267,68.217,207
198,382200,MANAS,KYRGYZSTAN,43.067,74.483,637
199,382320,AKKUDUK,KAZAKHSTAN,42.967,54.117,78
200,382640,NUKUS,UZBEKISTAN,42.45,59.617,77
201,383280,SHYMKENT,KAZAKHSTAN,42.317,69.7,604
202,383340,"AUL TURARA RYSKULOV",KAZAKHSTAN,42.483,70.3,808
203,383410,ZHAMBYL,KAZAKHSTAN,42.85,71.383,655
204,383430,KOOLAN,KAZAKHSTAN,42.95,72.75,683
205,383450,TALAS,KYRGYZSTAN,42.517,72.217,1218
206,383530,BISHKEK,KYRGYZSTAN,42.85,74.533,760
207,383531,MANAS,KYRGYZSTAN,43.067,74.483,637
208,383880,EKEZHE,TURKMENISTAN,41.033,57.767,62
209,383920,DASHKHOVUZ,TURKMENISTAN,41.75,59.817,82
210,383960,URGENCH,UZBEKISTAN,41.567,60.567,101
211,384030,BUZAUBAJ,UZBEKISTAN,41.75,62.467,98
212,384031,NUKUS/KARAKALPAKS,UZBEKISTAN,42.483,59.633,77
213,384032,URGENCH,UZBEKISTAN,41.583,60.633,101
214,384130,TAMDY,UZBEKISTAN,41.733,64.617,237
215,384230,TORUK,KAZAKHSTAN,41.8,66.717,202
216,384390,CARDARA,KAZAKHSTAN,41.367,68,275
217,384570,TASHKENT,UZBEKISTAN,41.267,69.267,466
218,384573,MARY,TURKMENISTAN,37.617,61.9,222
219,385070,TURKMENBASHI,TURKMENISTAN,40.05,53,82
220,385450,DARGANATA,UZBEKISTAN,40.467,62.283,142
221,385830,SYR-DARJA,UZBEKISTAN,40.817,68.683,264
222,385990,KHUDJAND,TAJIKISTAN,40.217,69.733,427
223,386090,ISFARA,TAJIKISTAN,40.133,70.6,873
224,386110,NAMANGAN,UZBEKISTAN,40.983,71.583,474
225,386150,OSH,KYRGYZSTAN,40.533,72.8,875
226,386180,FERGANA,UZBEKISTAN,40.367,71.75,577
227,386470,GAZANDZHYK,TURKMENISTAN,39.25,55.517,31
228,386560,ERBENT,TURKMENISTAN,39.317,58.6,87
229,386830,BUHARA,UZBEKISTAN,39.717,64.617,226
230,386870,CHARDZHEV,TURKMENISTAN,39.083,63.6,190
231,386960,SAMARKAND,UZBEKISTAN,39.567,66.95,724
232,387130,URA-TYUBE,TAJIKISTAN,39.9,68.983,1005
233,387500,ESENGYLY,TURKMENISTAN,37.467,53.967,-22
234,387630,GYZYLARBAT,TURKMENISTAN,38.983,56.283,92
235,387740,BAKHERDEN,TURKMENISTAN,38.433,57.417,159
236,387990,UCHADZHY,TURKMENISTAN,38.083,62.8,185
237,388060,BYRDALYK,TURKMENISTAN,38.467,64.367,212
238,388120,KARSHI,UZBEKISTAN,38.8,65.717,376
239,388360,DUSHANBE,TAJIKISTAN,38.55,68.783,800
240,388800,"ASHGABAT KESHI",TURKMENISTAN,37.917,58.333,312
241,388860,TEDZHEN,TURKMENISTAN,37.383,60.517,186
242,388950,BAJRAMALY,TURKMENISTAN,37.6,62.183,240
243,389110,KERKI,TURKMENISTAN,37.833,65.2,240
244,389150,CARSANGA,TURKMENISTAN,37.517,66.017,265
245,389270,TERMEZ,UZBEKISTAN,37.233,67.267,310
246,389740,SARAGT,TURKMENISTAN,36.533,61.217,275
247,389870,GYSHGY,TURKMENISTAN,35.283,62.35,625
248,400010,KAMISHLI,SYRIA,37.05,41.217,455
249,400070,"ALEPPO INT. AEROPOR",SYRIA,36.183,37.2,384
250,400220,LATTAKIA,SYRIA,35.533,35.767,7
251,400250,"BASEL ASSAD INT. A",SYRIA,35.4,35.933,50
252,400300,HAMA,SYRIA,35.117,36.75,303
253,400450,"DEIR EZZOR",SYRIA,35.317,40.15,212
254,400660,SAFITA,SYRIA,34.817,36.133,359
255,400800,"DAMASCUS INT. AIRPO",SYRIA,33.417,36.517,609
256,400830,NABK,SYRIA,34.033,36.717,1333
257,400950,DARAA,SYRIA,32.6,36.1,543
258,401000,"BEYROUTH (AEROPORT)",LEBANON,33.817,35.483,19
259,401010,HOUCHE-AL-OUMARA,LEBANON,33.817,35.85,920
260,401030,TRIPOLI,LEBANON,34.45,35.8,5
261,401540,"HAIFA/U. MICHAELI",ISRAEL,32.817,35,5
262,401550,HAIFA,ISRAEL,32.8,35.033,9
263,401650,RAMAT-DAVID,ISRAEL,32.667,35.183,49
264,401760,"SDE-DOV (TEL-AVIV)",ISRAEL,32.1,34.783,4
265,401761,"MAHANAIM I BEN YAAK",ISRAEL,32.983,35.567,288
266,401762,"SDE DOV",ISRAEL,32.116,34.783,13
267,401770,"DATSAV3 VIRT STATION (ISRAEL)",ISRAEL,32,34.817,0
268,401800,"BEN-GURION INT. AIR",ISRAEL,32,34.9,49
269,401910,BEER-SHEVA,ISRAEL,31.233,34.783,280
270,401980,OVDA,ISRAEL,30,34.833,445
271,401990,EILAT,ISRAEL,29.55,34.95,12
272,402500,"H-4 IRWAISHED",JORDAN,32.5,38.2,683
273,402550,IRBED,JORDAN,32.549,35.85,616
274,402600,"H-5 SAFAWI",JORDAN,32.2,37.133,674
275,402650,MAFRAQ,JORDAN,32.366,36.25,683
276,402700,"AMMAN AIRPORT",JORDAN,31.983,35.983,779
277,402720,"QUEEN ALIA AIRPORT",JORDAN,31.717,35.983,722
278,403100,MAAN,JORDAN,30.167,35.783,1069
279,403400,"AQABA AIRPORT",JORDAN,29.55,35,51
280,403560,TURAIF,"SAUDI ARABIA",31.683,38.733,852
281,403570,ARAR,"SAUDI ARABIA",30.9,41.133,549
282,403584,ARAR,"SAUDI ARABIA",30.967,40.983,542
283,403600,GURIAT,"SAUDI ARABIA",31.4,37.283,504
284,403610,AL-JOUF,"SAUDI ARABIA",29.783,40.1,689
285,403620,RAFHA,"SAUDI ARABIA",29.617,43.483,444
286,403720,MAARIK,"SAUDI ARABIA",30.533,38.9,813
287,403730,AL-QAISUMAH,"SAUDI ARABIA",28.317,46.133,358
288,403750,TABUK,"SAUDI ARABIA",28.383,36.6,768
289,403770,"HAFR AL-BATIN","SAUDI ARABIA",27.917,45.517,414
290,403940,HAIL,"SAUDI ARABIA",27.433,41.683,1002
291,404000,AL-WEJH,"SAUDI ARABIA",26.2,36.483,24
292,404050,GASSIM,"SAUDI ARABIA",26.3,43.767,648
293,404150,"DAMMAM (KING FAHD I","SAUDI ARABIA",26.433,49.8,12
294,404160,DHAHRAN,"SAUDI ARABIA",26.267,50.167,17
295,404170,"K.F.I.A. (KING FAHA","SAUDI ARABIA",26.45,49.817,12
296,404200,AL-AHSA,"SAUDI ARABIA",25.3,49.483,178
297,404270,BAHRAIN/MUHARRAQ,BAHRAIN,26.267,50.617,2
298,404280,"DOHA INTL AIRPORT",QATAR,25.267,51.55,11
299,404300,AL-MADINAH,"SAUDI ARABIA",24.55,39.7,636
300,404370,"KING KHALED INT. AI","SAUDI ARABIA",24.933,46.717,614
301,404380,"RIYADH OBS. (O.A.P.","SAUDI ARABIA",24.7,46.733,620
302,404390,YENBO,"SAUDI ARABIA",24.133,38.067,10
303,404450,AL-KHARJ,"SAUDI ARABIA",24.15,47.317,439
304,404480,DUBAI,"UNITED ARAB EMIRATES",25.25,55.333,8
305,404490,SHARJAH,"UNITED ARAB EMIRATES",25.35,55.383,2
306,404520,RAS-AL-KHAIMA,"UNITED ARAB EMIRATES",25.8,55.933,27
307,404770,"JEDDAH INTL","SAUDI ARABIA",21.5,39.2,17
308,404800,"TAIF/AT TAIF","SAUDI ARABIA",21.483,40.533,1471
309,404950,SULAYEL/ASSULAYYIL,"SAUDI ARABIA",20.467,45.667,615
310,404980,BISHA,"SAUDI ARABIA",19.967,42.667,1167
311,405520,"JAL AL LIYAH",KUWAIT,29.61,47.577,121
312,405640,"UMM AL-AISH",KUWAIT,29.8,47.767,34
313,405680,"BUBYAN ISLAND",KUWAIT,29.768,48.375,6
314,405690,"BEACON N6",KUWAIT,29.567,48.2,5
315,405700,SALMY,KUWAIT,29.101,46.682,289
316,405720,"SOUTH DOLPHIN",KUWAIT,29.417,48,6
317,405750,SALALAH,OMAN,17.033,54.083,17
318,405760,"SANAA INTL/RAHABA",YEMEN,15.483,44.217,2206
319,405820,"KUWAIT INTERNATIONA",KUWAIT,29.222,47.966,48
320,405860,JAHRA,KUWAIT,29.317,47.667,55
321,405880,"FAILAKA ISLAND",KUWAIT,29.449,48.333,7
322,405920,WAFRA,KUWAIT,28.556,48.06,107
323,406080,MOSUL,IRAQ,36.317,43.15,223
324,406210,KIRKUK,IRAQ,35.467,44.4,331
325,406370,KANAQIN,IRAQ,34.3,45.433,202
326,406420,RUTBAH,IRAQ,33.033,40.283,615
327,406480,"HABBANIYAH LAKE",IRAQ,33.367,43.567,45
328,406500,BAGHDAD,IRAQ,33.233,44.233,34
329,406650,KUT-AL-HAI,IRAQ,32.167,46.05,15
330,406720,DIWANIYA,IRAQ,31.983,44.983,20
331,406760,NASIRIYA,IRAQ,31.083,46.233,3
332,406890,BASRAH,IRAQ,30.567,47.783,2
333,407060,TABRIZ,IRAN,38.083,46.283,1361
334,407090,"DATSAV3 VIRT STATION (IRAN)",IRAN,25.433,60.367,0
335,407120,ORUMIEH,IRAN,37.533,45.083,1316
336,407180,ANZALI,IRAN,37.467,49.467,-26
337,407190,RASHT,IRAN,37.2,49.633,37
338,407290,ZANJAN,IRAN,36.683,48.483,1663
339,407300,"IMAM KHOMENI",IRAN,35.4,51.15,101
340,407310,GHAZVIN,IRAN,36.25,50,1278
341,407320,RAMSAR,IRAN,36.9,50.667,-20
342,407340,NOSHAHR,IRAN,36.65,51.5,-21
343,407360,BABULSAR,IRAN,36.717,52.65,-21
344,407390,SHAHRUD,IRAN,36.417,54.95,1345
345,407430,SABZEVAR,IRAN,36.217,57.667,978
346,407450,MASHHAD,IRAN,36.267,59.633,999
347,407470,SANANDAJ,IRAN,35.333,47,1373
348,407540,TEHRAN-MEHRABAD,IRAN,35.683,51.317,1191
349,407570,SEMNAN,IRAN,35.55,53.383,1131
350,407620,TORBAT-HEYDARIEH,IRAN,35.267,59.217,1451
351,407660,KERMANSHAH,IRAN,34.267,47.117,1322
352,407720,"DATSAV3 VIRT STATION (IRAN)",IRAN,25.433,60.367,0
353,407780,"DATSAV3 VIRT STATION (IRAN)",IRAN,25.433,60.367,0
354,407802,"KISH ISLAND",IRAN,26.517,53.983,31
355,408000,ESFAHAN,IRAN,32.467,51.667,1550
356,408090,BIRJAND,IRAN,32.867,59.2,1491
357,408110,AHWAZ,IRAN,31.333,48.667,22
358,408190,"DATSAV3 VIRT STATION (IRAN)",IRAN,25.433,60.367,0
359,408210,YAZD,IRAN,31.9,54.283,1237
360,408230,"DATSAV3 VIRT STATION (IRAN)",IRAN,25.433,60.367,0
361,408310,ABADAN,IRAN,30.367,48.25,6
362,408410,KERMAN,IRAN,30.25,56.967,1754
363,408480,SHIRAZ,IRAN,29.533,52.533,1481
364,408560,ZAHEDAN,IRAN,29.467,60.883,1370
365,408580,"BUSHEHR (CIV/AFB)",IRAN,28.983,50.833,19
366,408590,FASA,IRAN,28.967,53.683,1288
367,408750,BANDARABBASS,IRAN,27.217,56.367,10
368,408790,IRANSHAHR,IRAN,27.2,60.7,591
369,409480,"KABUL AIRPORT",AFGHANISTAN,34.55,69.217,1791
370,410240,"JEDDAH (KING ABDUL","SAUDI ARABIA",21.7,39.183,17
371,410300,MAKKAH,"SAUDI ARABIA",21.433,39.767,240
372,410360,AL-TAIF,"SAUDI ARABIA",21.483,40.55,1453
373,410550,AL-BAHA,"SAUDI ARABIA",20.3,41.65,1652
374,410620,SULAYEL,"SAUDI ARABIA",20.467,45.667,614
375,410840,BISHA,"SAUDI ARABIA",19.983,42.633,1162
376,411120,ABHA,"SAUDI ARABIA",18.233,42.65,2093
377,411140,"KHAMIS MUSHAIT","SAUDI ARABIA",18.3,42.8,2056
378,411280,NAJRAN,"SAUDI ARABIA",17.617,44.417,1212
379,411400,GIZAN,"SAUDI ARABIA",16.883,42.583,7
380,411500,"BAHRAIN (INT. AIRPO",BAHRAIN,26.267,50.65,2
381,411700,"DOHA INTERNATIONAL",QATAR,25.25,51.567,10
382,411840,"RAS AL KHAIMAH INTE","UNITED ARAB EMIRATES",25.617,55.933,31
383,411940,"DUBAI INTERNATIONAL","UNITED ARAB EMIRATES",25.25,55.333,5
384,411960,"SHARJAH INTER. AIRP","UNITED ARAB EMIRATES",25.333,55.517,33
385,411980,FUJAIRAH,"UNITED ARAB EMIRATES",25.1,56.333,28
386,412160,"ABU DHABI BATEEN AI","UNITED ARAB EMIRATES",24.433,54.467,3
387,412170,"ABU DHABI INTER. AI","UNITED ARAB EMIRATES",24.433,54.65,27
388,412180,"AL AIN INTERNATIONA","UNITED ARAB EMIRATES",24.267,55.6,262
389,412410,"KHASAB AIRPORT",OMAN,26.167,56.233,3
390,412460,"SOHAR MAJIS",OMAN,24.467,56.633,4
391,412540,SAIQ,OMAN,23.067,57.633,1755
392,412560,"SEEB INTL AIRPORT",OMAN,23.583,58.283,15
393,412880,MASIRAH,OMAN,20.667,58.9,19
394,413140,THUMRAIT,OMAN,17.667,54.017,467
395,413160,SALALAH,OMAN,17.033,54.083,23
396,414040,SANAA,YEMEN,15.517,44.183,2190
397,415300,PESHAWAR,PAKISTAN,34.017,71.583,360
398,415710,"ISLAMABAD AIRPORT",PAKISTAN,33.617,73.1,508
399,416410,"LAHORE AIRPORT",PAKISTAN,31.517,74.4,217
400,417490,NAWABSHAH,PAKISTAN,26.25,68.367,38
401,417560,JIWANI,PAKISTAN,25.067,61.8,57
402,417800,"KARACHI AIRPORT",PAKISTAN,24.9,67.133,22
403,418580,SAIDPUR,BANGLADESH,25.75,88.917,44
404,418620,LALMONIRHAT,BANGLADESH,25.883,89.483,34
405,419170,DACCA/TEZGAON,BANGLADESH,23.767,90.383,7
406,419410,CHANDPUR,BANGLADESH,23.267,90.7,7
407,420710,AMRITSAR,INDIA,31.633,74.867,234
408,421110,DEHRADUN,INDIA,30.317,78.033,682
409,421310,HISSAR,INDIA,29.167,75.733,221
410,421650,BIKANER,INDIA,28,73.3,224
411,421810,"NEW DELHI/PALAM",INDIA,28.567,77.117,233
412,421820,"NEW DELHI/SAFDARJUN",INDIA,28.583,77.2,216
413,422600,AGRA,INDIA,27.15,77.967,169
414,423280,JAISALMER,INDIA,26.9,70.917,231
415,423390,JODHPUR,INDIA,26.3,73.017,224
416,423480,JAIPUR/SANGANER,INDIA,26.817,75.8,390
417,423690,LUCKNOW/AMAUSI,INDIA,26.75,80.883,128
418,423790,GORAKHPUR,INDIA,26.75,83.367,77
419,424520,"KOTA AERODROME",INDIA,25.15,75.85,274
420,424750,ALLAHABAD/BAMHRAULI,INDIA,25.45,81.733,98
421,425590,GUNA,INDIA,24.65,77.317,478
422,425910,GAYA,INDIA,24.75,84.95,116
423,426340,BHUJ-RUDRAMATA,INDIA,23.25,69.667,80
424,426470,AHMADABAD,INDIA,23.067,72.633,55
425,426670,BHOPAL/BAIRAGARH,INDIA,23.283,77.35,523
426,426750,JABALPUR,INDIA,23.2,79.95,393
427,427010,"M.O. RANCHI",INDIA,23.317,85.317,652
428,427370,RAJKOT,INDIA,22.3,70.783,138
429,427540,INDORE,INDIA,22.717,75.8,567
430,428090,"CALCUTTA/DUM DUM",INDIA,22.65,88.45,6
431,428400,SURAT,INDIA,21.2,72.833,12
432,428670,"NAGPUR SONEGAON",INDIA,21.1,79.05,310
433,428740,"PBO RAIPUR",INDIA,21.233,81.65,298
434,428950,BALASORE,INDIA,21.517,86.933,20
435,429090,VERAVAL,INDIA,20.9,70.367,8
436,429210,NASIK,INDIA,20,73.783,598
437,429340,AKOLA,INDIA,20.7,77.067,309
438,429710,BHUBANESWAR,INDIA,20.25,85.833,46
439,430030,BOMBAY/SANTACRUZ,INDIA,19.117,72.85,14
440,430140,"AURANGABAD CHIKALTH",INDIA,19.85,75.4,579
441,430630,POONA,INDIA,18.533,73.85,559
442,431100,RATNAGIRI,INDIA,16.983,73.333,67
443,431170,SHOLAPUR,INDIA,17.667,75.9,479
444,431280,"HYDERABAD AIRPORT",INDIA,17.45,78.467,545
445,431500,"CWC VISHAKHAPATNAM",INDIA,17.7,83.3,66
446,431850,MACHILIPATNAM,INDIA,16.2,81.15,3
447,431890,KAKINADA,INDIA,16.95,82.233,8
448,431920,GOA/PANJIM,INDIA,15.483,73.817,60
449,431980,BELGAUM/SAMBRA,INDIA,15.85,74.617,747
450,432010,GADAG,INDIA,15.417,75.633,650
451,432130,KURNOOL,INDIA,15.8,78.067,281
452,432260,HONAVAR,INDIA,14.283,74.45,9
453,432330,CHITRADURGA,INDIA,14.233,76.433,733
454,432370,"PBO ANANTAPUR",INDIA,14.583,77.633,364
455,432450,NELLORE,INDIA,14.45,79.983,20
456,432790,MADRAS/MINAMBAKKAM,INDIA,13,80.183,16
457,432840,MANGALORE/BAJPE,INDIA,12.917,74.883,102
458,432950,BANGALORE,INDIA,12.967,77.583,921
459,432960,BANGALORE/HINDUSTAN,INDIA,12.95,77.633,897
460,433140,KOZHIKODE,INDIA,11.25,75.783,5
461,433210,COIMBATORE/PEELAMED,INDIA,11.033,77.05,399
462,433290,CUDDALORE,INDIA,11.767,79.767,12
463,433330,"PORT BLAIR",INDIA,11.667,92.717,79
464,433440,TIRUCHCHIRAPALLI,INDIA,10.767,78.717,88
465,433460,KARAIKAL,INDIA,10.917,79.833,7
466,433530,COCHIN/WILLINGDON,INDIA,9.95,76.267,3
467,433690,MINICOY,INDIA,8.3,73.15,2
468,433710,THIRUVANANTHAPURAM,INDIA,8.483,76.95,64
469,434000,KANKASANTURAI,"SRI LANKA",9.8,80.067,15
470,434130,MANNAR,"SRI LANKA",8.983,79.917,3
471,434180,TRINCOMALEE,"SRI LANKA",8.583,81.25,79
472,434500,KATUNAYAKE,"SRI LANKA",7.167,79.883,8
473,435550,MALE,MALDIVES,4.2,73.533,2
474,435990,GAN,MALDIVES,-0.683,73.15,2
475,442070,HATGAL,MONGOLIA,50.433,100.15,1668
476,442120,ULAANGOM,MONGOLIA,49.8,92.083,939
477,442140,ULGI,MONGOLIA,48.933,89.933,1715
478,442190,URGAMAL,MONGOLIA,48.517,94.3,1263
479,442290,TARIAT,MONGOLIA,48.083,99.55,2041
480,442320,HUTAG,MONGOLIA,49.383,102.7,938
481,442370,ERDENEMANDAL,MONGOLIA,48.533,101.383,1509
482,442410,BARUUNHARAA,MONGOLIA,48.917,106.067,807
483,442590,CHOIBALSAN,MONGOLIA,48.083,114.55,747
484,442770,ALTAI,MONGOLIA,46.4,96.25,2181
485,442820,TSETSERLEG,MONGOLIA,47.45,101.467,1691
486,442840,GALUUT,MONGOLIA,46.7,100.133,2126
487,442870,BAYANHONGOR,MONGOLIA,46.133,100.683,1859
488,442880,ARVAIHEER,MONGOLIA,46.267,102.783,1813
489,442920,ULAANBAATAR,MONGOLIA,47.917,106.867,1306
490,442980,CHOIR,MONGOLIA,46.45,108.217,1286
491,443040,UNDERKHAAN,MONGOLIA,47.317,110.633,1033
492,443050,BARUUN-URT,MONGOLIA,46.683,113.283,981
493,443140,MATAD,MONGOLIA,47.167,115.633,907
494,443170,ERDENETSAGAAN,MONGOLIA,45.9,115.367,1076
495,443290,AMARBUYANTAYN,MONGOLIA,44.617,98.7,2103
496,443410,MANDALGOBI,MONGOLIA,45.767,106.283,1393
497,443470,TSOGT-OVOO,MONGOLIA,44.417,105.317,1298
498,443520,BAYANDELGER,MONGOLIA,45.733,112.367,1101
499,443540,SAINSHAND,MONGOLIA,44.9,110.117,938
500,443730,DALANZADGAD,MONGOLIA,43.583,104.417,1465
501,443740,"SHINE USA",MONGOLIA,42.9,100.217,1494
502,443850,HANBOGD,MONGOLIA,43.2,107.167,914
503,450040,KOWLOON,CHINA,22.317,114.167,66
504,450050,"HONG KONG OBSERVATO",CHINA,22.3,114.167,62
505,450070,"HONG KONG INTERNATI",CHINA,22.317,113.917,8
506,450110,"TAIPA GRANDE",MACAU,22.15,113.6,6
507,466860,"CHIANG KAI SHEK",TAIWAN,25.083,121.217,33
508,466890,"MAZU (=588490)",TAIWAN,26.167,119.933,91
509,466920,"TAIBEI (=589680)",TAIWAN,25.033,121.517,9
510,466940,CHILUNG,TAIWAN,25.15,121.8,3
511,466950,"PENGJIA YU(=589740)",TAIWAN,25.633,122.067,102
512,466960,SUNGSHAN/TAIPEI,TAIWAN,25.067,121.55,6
513,466970,"TAOYUAN AB (=589650",TAIWAN,25.067,121.233,45
514,466990,"HUA-LIEN CITY",TAIWAN,23.983,121.6,19
515,467060,"SUAO MET STATION",TAIWAN,24.6,121.85,3
516,467080,"ILAN CITY",TAIWAN,24.75,121.783,7
517,467300,DONGSHI,TAIWAN,23.267,119.667,45
518,467340,"MAKUNG AB (=593450)",TAIWAN,23.583,119.617,31
519,467350,"PENGHU ISLANDS",TAIWAN,23.5,119.5,21
520,467360,CHINMEM/SHATOU(AFB),TAIWAN,24.433,118.367,9
521,467400,"KAOHSIUNG INTL ARPT",TAIWAN,22.583,120.35,9
522,467410,"TAINAN (=593580)",TAIWAN,23,120.217,14
523,467425,"BOGUS TAIWANESE",TAIWAN,10.383,114.367,0
524,467430,"TAINAN (TW-AFB)",TAIWAN,22.95,120.2,19
525,467440,KAOHSIUNG,TAIWAN,22.633,120.283,29
526,467450,"KANGSHAN (TW-AFB)",TAIWAN,22.783,120.267,10
527,467460,"CHIAYI (TW-AFB)",TAIWAN,23.467,120.383,25
528,467480,CHIAYI,TAIWAN,23.5,120.45,28
529,467490,"TAICHUNG (=591580)",TAIWAN,24.15,120.683,78
530,467500,"PINGTUNG SOUTH(AFB)",TAIWAN,22.683,120.467,24
531,467510,"TAICHUNG (TW-AFB)",TAIWAN,24.183,120.65,112
532,467520,HENGCHUN,TAIWAN,21.933,120.833,13
533,467530,"MOUNT ALISAN",TAIWAN,23.517,120.8,2406
534,467540,DAWU,TAIWAN,22.35,120.9,8
535,467550,"MOUNT MORRISON",TAIWAN,23.483,120.95,3850
536,467560,"HSINCHU (TW-AFB)",TAIWAN,24.817,120.933,8
537,467570,"HSINCHU CITY",TAIWAN,24.833,120,27
538,467580,"PINGTUNG NORTH(AFB)",TAIWAN,22.7,120.483,29
539,467590,"HENGCHUN (=595590)",TAIWAN,22,120.75,24
540,467600,"CHIHHANG (TW-AFB)",TAIWAN,22.8,121.183,37
541,467610,CHENG-KUNG,TAIWAN,23.1,121.367,37
542,467620,"LAN YU (=595670)",TAIWAN,22.033,121.55,325
543,467630,"HULIEN AB (=593620)",TAIWAN,24.033,121.617,16
544,467640,ILAN,TAIWAN,24.75,121.767,9
545,467650,JOYUTANG,TAIWAN,23.883,120.85,1015
546,467660,"TAIDONG (=595620)",TAIWAN,22.75,121.15,10
547,467690,"LUNG TAN(TAFB)",TAIWAN,24.867,121.233,241
548,467700,"WUCHIA OBSERVATORY",TAIWAN,24.267,120.617,5
549,467720,"CHIA TUNG",TAIWAN,22.417,120.55,20
550,467770,"WU-CHI OBSERVATORY",TAIWAN,24.25,120.517,5
551,467800,LU-TAO,TAIWAN,22.683,121.5,280
552,468100,"DONGSHA (=597920)",TAIWAN,20.667,116.717,6
553,470311,MEILAN,CHINA,19.933,110.45,23
554,470312,ZHENGDING,CHINA,38.283,114.683,233
555,472185,"OKUSHIRI ISLAND",JAPAN,42.067,139.45,36
556,474010,WAKKANAI,JAPAN,45.417,141.683,11
557,474020,KITAMIESASHI,JAPAN,44.933,142.583,8
558,474040,HABORO,JAPAN,44.367,141.7,10
559,474050,OMU,JAPAN,44.583,142.967,15
560,474060,RUMOI,JAPAN,43.95,141.633,28
561,474070,ASAHIKAWA,JAPAN,43.767,142.367,116
562,474090,ABASHIRI,JAPAN,44.017,144.283,43
563,474110,OTARU,JAPAN,43.183,141.017,26
564,474120,SAPPORO,JAPAN,43.067,141.333,26
565,474130,IWAMIZAWA,JAPAN,43.217,141.783,51
566,474170,OBIHIRO,JAPAN,42.917,143.217,43
567,474180,KUSHIRO,JAPAN,42.983,144.383,39
568,474200,NEMURO,JAPAN,43.333,145.583,39
569,474210,SUTTSU,JAPAN,42.8,140.217,38
570,474230,MURORAN,JAPAN,42.317,140.983,49
571,474240,TOMAKOMAI,JAPAN,42.617,141.55,11
572,474250,"CHITOSE AB",JAPAN,42.8,141.667,30
573,474260,URAKAWA,JAPAN,42.167,142.783,37
574,474280,ESASHI,JAPAN,41.867,140.117,12
575,474300,HAKODATE,JAPAN,41.817,140.75,43
576,474330,KUTCHAN,JAPAN,42.9,140.75,188
577,474340,"CHITOSE (JASDF)",JAPAN,42.817,141.683,27
578,474350,MOMBETSU,JAPAN,44.35,143.35,16
579,474400,HIROO,JAPAN,42.3,143.317,33
580,474410,"WAKKANAI AIRPORT",JAPAN,45.4,141.8,11
581,474740,"MOMBETSU AIRPORT",JAPAN,44.3,143.4,21
582,474760,"ASAHIKAWA AIRPORT",JAPAN,43.667,142.45,214
583,474790,"SAPPORO AB",JAPAN,43.117,141.383,11
584,474810,"MEMAMBETSU AIRPORT",JAPAN,43.883,144.167,36
585,474830,"NAKASHIBETSU AIRPOR",JAPAN,43.583,144.967,68
586,474880,"HAKODATE AIRPORT",JAPAN,41.767,140.817,37
587,474890,"KUSHIRO AIRPORT",JAPAN,43.033,144.2,98
588,474900,"OBIHIRO AIRPORT",JAPAN,42.733,143.217,152
589,475120,OFUNATO,JAPAN,39.067,141.717,41
590,475150,"HACHINOHE AB",JAPAN,40.55,141.467,49
591,475160,"OMINATO AB",JAPAN,41.233,141.133,10
592,475200,SHINJO,JAPAN,38.75,140.317,102
593,475420,"AOMORI AIRPORT",JAPAN,40.733,140.683,202
594,475450,"AKITA AIRPORT",JAPAN,39.617,140.217,96
595,475490,"HANAMAKI AIRPORT",JAPAN,39.433,141.133,93
596,475530,"YAMAGATA AIRPORT",JAPAN,38.417,140.367,108
597,475570,"FUKUSHIMA AIRPORT",JAPAN,37.233,140.433,375
598,475690,"SENDAI AIRPORT",JAPAN,38.133,140.917,5
599,475700,WAKAMATSU,JAPAN,37.483,139.917,213
600,475730,"NIIGATA (CIV/JASDF)",JAPAN,37.95,139.117,4
601,475740,FUKAURA,JAPAN,40.65,139.933,67
602,475750,AOMORI,JAPAN,40.817,140.767,3
603,475760,MUTSU,JAPAN,41.283,141.217,5
604,475800,"MISAWA AB",JAPAN,40.7,141.367,39
605,475810,HACHINOHE,JAPAN,40.533,141.517,28
606,475820,AKITA,JAPAN,39.717,140.1,21
607,475830,"ODATE-NOSHIRO AIRPO",JAPAN,40.2,140.2,87
608,475840,MORIOKA,JAPAN,39.7,141.167,155
609,475850,MIYAKO,JAPAN,39.65,141.967,46
610,475870,SAKATA,JAPAN,38.917,139.85,4
611,475874,SHONAI,JAPAN,38.8,139.783,27
612,475880,YAMAGATA,JAPAN,38.25,140.35,153
613,475900,SENDAI,JAPAN,38.267,140.9,43
614,475910,"MATSUSHIMA AB",JAPAN,38.4,141.217,5
615,475920,ISHINOMAKI,JAPAN,38.433,141.3,43
616,475970,SHIRAKAWA,JAPAN,37.133,140.217,357
617,475980,ONAHAMA,JAPAN,36.95,140.9,5
618,476000,WAJIMA,JAPAN,37.4,136.9,14
619,476020,AIKAWA,JAPAN,38.033,138.233,17
620,476040,NIIGATA,JAPAN,37.917,139.05,6
621,476050,KANAZAWA,JAPAN,36.583,136.633,33
622,476060,FUSHIKI,JAPAN,36.8,137.05,13
623,476120,TAKADA,JAPAN,37.1,138.25,18
624,476170,TAKAYAMA,JAPAN,36.15,137.25,561
625,476180,MATSUMOTO,JAPAN,36.25,137.967,611
626,476200,SUWA,JAPAN,36.05,138.117,762
627,476240,MAEBASHI,JAPAN,36.4,139.067,113
628,476290,MITO,JAPAN,36.383,140.467,31
629,476310,TSURUGA,JAPAN,35.65,136.067,12
630,476340,"GIFU AB",JAPAN,35.383,136.867,42
631,476345,"NAGOYA A",JAPAN,34.85,136.8,38
632,476350,"NAGOYA AIRPORT",JAPAN,35.25,136.917,17
633,476360,NAGOYA,JAPAN,35.167,136.967,56
634,476370,IIDA,JAPAN,35.517,137.817,529
635,476380,KOFU,JAPAN,35.667,138.55,281
636,476390,FUJISAN,JAPAN,35.367,138.733,3773
637,476400,KAWAGUCHIKO,JAPAN,35.5,138.767,861
638,476410,CHICHIBU,JAPAN,35.983,139.067,234
639,476420,"YOKOTA (JASDF/USAF)",JAPAN,35.75,139.35,139
640,476430,"IRUMA AB",JAPAN,35.833,139.417,93
641,476480,CHOSHI,JAPAN,35.733,140.85,28
642,476490,UENO,JAPAN,34.767,136.15,161
643,476500,"DATSAV3 VIRT STATION (JAPAN)",JAPAN,35.45,139.45,0
644,476530,IRAKO,JAPAN,34.633,137.1,8
645,476540,HAMAMATSU,JAPAN,34.717,137.717,33
646,476550,OMAEZAKI,JAPAN,34.6,138.217,47
647,476570,MISHIMA,JAPAN,35.117,138.933,22
648,476580,"SHIZUHAMA AB",JAPAN,34.817,138.3,10
649,476600,"TACHIKAWA AB",JAPAN,35.7,139.4,98
650,476620,TOKYO,JAPAN,35.683,139.767,36
651,476630,OWASE,JAPAN,34.067,136.2,27
652,476660,IROZAKI,JAPAN,34.6,138.85,56
653,476680,AJIRO,JAPAN,35.05,139.1,68
654,476710,"TOKYO INTERNATIONAL",JAPAN,35.55,139.783,9
655,476720,TATEYAMA,JAPAN,34.983,139.867,7
656,476730,"DATSAV3 VIRT STATION (JAPAN)",JAPAN,35.45,139.45,0
657,476740,KATSUURA,JAPAN,35.15,140.317,13
658,476741,AMAKUSA,JAPAN,32.482,130.15,106
659,476742,NOTO,JAPAN,37.283,136.95,718
660,476750,OSHIMA,JAPAN,34.75,139.383,79
661,476770,MIYAKEJIMA,JAPAN,34.117,139.517,37
662,476780,HACHIJOJIMA,JAPAN,33.117,139.783,80
663,476790,"ATSUGI NAS",JAPAN,35.45,139.45,65
664,476800,"ZAMA AIRFIELD",JAPAN,35.517,139.4,112
665,476810,"HAMAMATSU AB",JAPAN,34.75,137.7,48
666,476830,"CHOFU AIRPORT",JAPAN,35.667,139.533,45
667,476840,YOKKAICHI,JAPAN,34.933,136.583,56
668,476860,"NEW TOKYO INTERNATI",JAPAN,35.767,140.383,44
669,476870,"TOKYO HELIPORT",JAPAN,35.633,139.833,8
670,476880,"TATEYAMA AB",JAPAN,34.983,139.833,6
671,476900,NIKKO,JAPAN,36.733,139.5,1294
672,476960,YOKOSUKA,JAPAN,35.283,139.667,53
673,477000,SADO,JAPAN,38.05,138.417,26
674,477040,"KOMATSU AB",JAPAN,36.4,136.4,9
675,477060,"FUKUI AIRPORT",JAPAN,36.15,136.217,8
676,477070,"TOYAMA AIRPORT",JAPAN,36.65,137.183,27
677,477090,"MATSUMOTO AIRPORT",JAPAN,36.167,137.917,661
678,477150,"HYAKURI AB",JAPAN,36.183,140.417,35
679,477270,"SHIMOFUSA AB",JAPAN,35.8,140.017,33
680,477350,"OSHIMA AIRPORT",JAPAN,34.783,139.367,41
681,477370,"MIYAKEJIMA AIRPORT",JAPAN,34.05,139.55,23
682,477380,"HACHIJOJIMA AIRPORT",JAPAN,33.117,139.783,95
683,477390,"OKI AIRPORT",JAPAN,36.183,133.317,95
684,477400,SAIGO,JAPAN,36.2,133.333,31
685,477410,MATSUE,JAPAN,35.45,133.067,22
686,477420,SAKAI,JAPAN,35.55,133.233,3
687,477430,"MIHO AB",JAPAN,35.483,133.233,9
688,477440,YONAGO,JAPAN,35.433,133.333,8
689,477460,TOTTORI,JAPAN,35.483,134.2,15
690,477470,TOYOOKA,JAPAN,35.533,134.817,4
691,477473,TAJIMA,JAPAN,35.5,134.783,183
692,477500,MAIZURU,JAPAN,35.45,135.317,22
693,477540,HAGI,JAPAN,34.417,131.4,7
694,477550,HAMADA,JAPAN,34.9,132.067,20
695,477560,TSUYAMA,JAPAN,35.067,134.017,147
696,477590,KYOTO,JAPAN,35.017,135.733,46
697,477620,SHIMONOSEKI,JAPAN,33.95,130.933,19
698,477640,IWAKUNI,JAPAN,34.15,132.233,3
699,477641,"IWAKUNI MCAS",JAPAN,34.15,132.233,2
700,477650,HIROSHIMA,JAPAN,34.4,132.467,53
701,477660,KURE,JAPAN,34.233,132.55,5
702,477670,FUKUYAMA,JAPAN,34.45,133.25,3
703,477690,HIMEJI,JAPAN,34.833,134.667,40
704,477700,KOBE,JAPAN,34.7,135.217,30
705,477710,"OSAKA INTERNATIONAL",JAPAN,34.783,135.433,15
706,477720,OSAKA,JAPAN,34.683,135.517,83
707,477740,"KANSAI INTERNATIONA",JAPAN,34.433,135.25,8
708,477760,SUMOTO,JAPAN,34.333,134.9,112
709,477770,WAKAYAMA,JAPAN,34.233,135.167,18
710,477780,SHIONOMISAKI,JAPAN,33.45,135.767,75
711,477790,"YAO AIRPORT",JAPAN,34.6,135.6,13
712,477820,"NANKISHIRAHAMA AIRP",JAPAN,33.667,135.367,92
713,477830,"IWAMI AIRPORT",JAPAN,34.683,131.783,57
714,477860,"YAMAGUCHI UBE AIRPO",JAPAN,33.933,131.283,8
715,477870,"OZUKI AB",JAPAN,34.05,131.05,7
716,477880,"HOFU AB",JAPAN,34.033,131.55,5
717,477890,"HIROSHIMA AIRPORT",JAPAN,34.433,132.917,334
718,477895,HIROSHIMANISHI,JAPAN,34.367,132.417,5
719,477900,"IZUMO AIRPORT",JAPAN,35.417,132.883,5
720,477930,"OKAYAMA AIRPORT",JAPAN,34.75,133.85,242
721,477940,"TOTTORI AIRPORT",JAPAN,35.533,134.167,18
722,477990,"TSUSHIMA AIRPORT",JAPAN,34.283,129.333,66
723,477991,TSUSHIMA,JAPAN,34.3,129.3,3
724,478000,IZUHARA,JAPAN,34.2,129.3,19
725,478030,"ASHIYA AB",JAPAN,33.883,130.65,33
726,478050,HIRADO,JAPAN,33.367,129.55,59
727,478070,FUKUOKA,JAPAN,33.583,130.383,15
728,478080,"FUKUOKA AIRPORT",JAPAN,33.583,130.449,12
729,478090,IIZUKA,JAPAN,33.65,130.699,38
730,478100,"SAGA AIRPORT",JAPAN,33.15,130.3,5
731,478120,SASEBO,JAPAN,33.15,129.733,6
732,478140,HITA,JAPAN,33.317,130.933,84
733,478150,OITA,JAPAN,33.233,131.617,13
734,478160,"DATSAV3 VIRT STATION (JAPAN)",JAPAN,35.45,139.45,0
735,478170,NAGASAKI,JAPAN,32.732,129.866,35
736,478180,UNZENDAKE,JAPAN,32.732,130.267,679
737,478190,KUMAMOTO,JAPAN,32.817,130.699,39
738,478210,ASOSAN,JAPAN,32.883,131.067,1144
739,478220,NOBEOKA,JAPAN,32.583,131.65,21
740,478230,AKUNE,JAPAN,32.033,130.199,45
741,478240,HITOYOSHI,JAPAN,32.217,130.75,147
742,478270,KAGOSHIMA,JAPAN,31.55,130.55,32
743,478290,MIYAKONOJO,JAPAN,31.733,131.083,156
744,478300,MIYAZAKI,JAPAN,31.933,131.417,15
745,478310,MAKURAZAKI,JAPAN,31.267,130.3,31
746,478350,ABURATSU,JAPAN,31.583,131.4,15
747,478360,YAKUSHIMA,JAPAN,30.383,130.667,38
748,478370,TANEGASHIMA,JAPAN,30.733,130.983,18
749,478380,USHIBUKA,JAPAN,31.717,130.032,14
750,478400,"TSUIKI AB",JAPAN,33.683,131.05,20
751,478430,FUKUE,JAPAN,32.7,128.833,26
752,478440,"FUKUE AIRPORT",JAPAN,32.667,128.833,80
753,478500,"KANOYA AB",JAPAN,31.367,130.833,68
754,478510,"KAGOSHIMA AIRPORT",JAPAN,31.8,130.717,275
755,478520,"OITA AIRPORT",JAPAN,33.483,131.733,8
756,478530,"KITAKYUSHU AIRPORT",JAPAN,33.833,130.949,6
757,478540,"NYUTABARU AB",JAPAN,32.083,131.45,82
758,478550,"NAGASAKI AIRPORT",JAPAN,32.917,129.917,6
759,478560,"KUMAMOTO AIRPORT",JAPAN,32.833,130.85,196
760,478570,"MIYAZAKI AIRPORT",JAPAN,31.867,131.45,9
761,478580,"IKI AIRPORT",JAPAN,33.75,129.782,16
762,478700,"TANEGASHIMA AIRPORT",JAPAN,30.55,130.949,95
763,478720,"AMAMI AIRPORT",JAPAN,28.433,129.717,7
764,478800,"TAKAMATSU AIRPORT",JAPAN,34.217,134.017,188
765,478810,"TOKUSHIMA AB",JAPAN,34.133,134.617,11
766,478820,"MATSUYAMA AIRPORT",JAPAN,33.833,132.7,7
767,478830,"KOCHI AIRPORT",JAPAN,33.55,133.667,10
768,478840,"KOMATSUSHIMA AB",JAPAN,34,134.633,6
769,478870,MATSUYAMA,JAPAN,33.85,132.783,34
770,478900,TADOTSU,JAPAN,34.283,133.75,5
771,478910,TAKAMATSU,JAPAN,34.317,134.05,10
772,478920,UWAJIMA,JAPAN,33.233,132.55,14
773,478930,KOCHI,JAPAN,33.567,133.55,5
774,478950,TOKUSHIMA,JAPAN,34.067,134.567,6
775,478970,SUKUMO,JAPAN,32.917,132.7,11
776,478980,SHIMIZU,JAPAN,32.717,133.017,33
777,478990,MUROTOMISAKI,JAPAN,33.25,134.183,186
778,479090,NAZE,JAPAN,28.383,129.5,7
779,479100,"TOKUNOSHIMA ISLAND",JAPAN,27.833,128.883,5
780,479110,"YONAGUNI AIRPORT",JAPAN,24.467,122.983,19
781,479170,IRIOMOTEJIMA,JAPAN,24.433,123.767,11
782,479180,ISHIGAKIJIMA,JAPAN,24.333,124.167,6
783,479270,MIYAKOJIMA,JAPAN,24.8,125.283,41
784,479276,SHIMOJISHIMA,JAPAN,24.817,125.133,17
785,479290,KUMEJIMA,JAPAN,26.333,126.8,5
786,479300,"NAHA AIRPORT",JAPAN,26.2,127.65,6
787,479310,"KADENA (USAF/NAVY)",JAPAN,26.35,127.767,45
788,479330,FUTENMA,JAPAN,26.267,127.75,84.1
789,479350,"HAMBY AAF/BUCKNER",JAPAN,26.3,127.767,6
790,479360,NAHA,JAPAN,26.2,127.683,53
791,479400,NAGO,JAPAN,26.6,127.967,7
792,479420,OKINOERABU,JAPAN,27.433,128.699,29
793,479450,MINAMIDAITOJIMA,JAPAN,25.833,131.233,20
794,479710,"CHICHIJIMA ISLAND",JAPAN,27.083,142.183,7.9
795,479810,IWOJIMA,JAPAN,24.783,141.317,116
796,479910,MINAMITORISHIMA,JAPAN,24.283,153.983,8
797,483000,"MAE HONG SON",THAILAND,19.3,97.833,269
798,483030,"CHIANG RAI",THAILAND,19.967,99.883,393
799,483032,"DATSAV3 VIRT STATION (THAILAND)",THAILAND,9.467,100.05,0
800,483270,"CHIANG MAI",THAILAND,18.783,98.983,313
801,483280,LAMPANG,THAILAND,18.283,99.517,242
802,483520,"NONG KHAI",THAILAND,17.867,102.717,175
803,483530,LOEI,THAILAND,17.45,101.733,254
804,483540,"UDON THANI",THAILAND,17.383,102.8,182
805,483545,"UDORN AB (USAF)",THAILAND,17.383,102.8,178
806,483570,"NAKHON PHANOM",THAILAND,17.417,104.783,148
807,483575,"DATSAV3 VIRT STATION (THAILAND)",THAILAND,9.467,100.05,0
808,483750,"MAE SOT",THAILAND,16.667,98.55,197
809,483760,TAK,THAILAND,16.883,99.15,124
810,483770,"BHUMIBOL DAM",THAILAND,17.25,99.017,144
811,483780,PHITSANULOK,THAILAND,16.783,100.267,45
812,483790,PHETCHABUN,THAILAND,16.433,101.15,116
813,483800,"KAM PAENG PHET",THAILAND,16.483,99.533,81
814,483810,"KHON KAEN",THAILAND,16.433,102.833,166
815,483820,KOSUMPHISAI,THAILAND,16.233,103.067,154
816,483830,MUKDAHAN,THAILAND,16.533,104.717,139
817,483900,KAMALASAI,THAILAND,16.332,103.583,139
818,484000,"NAKHON SAWAN",THAILAND,15.8,100.167,35
819,484005,"TA KHLI  THAILAND AB",THAILAND,15.233,100.283,37
820,484006,"TAKHLI (THAI-AFB)",THAILAND,15.283,100.3,33
821,484030,CHAIYAPHUM,THAILAND,15.8,102.033,183
822,484050,"ROI ET",THAILAND,16.05,103.683,142
823,484070,"UBON RATCHATHANI",THAILAND,15.25,104.867,127
824,484075,"BURI RAM",THAILAND,15.217,103.25,184
825,484076,SUKHOTHAI,THAILAND,17.233,99.817,54
826,484250,"SUPHAN BURI",THAILAND,14.467,100.133,8
827,484260,"LOP BURI",THAILAND,14.8,100.617,11
828,484300,"PRACHIN BURI",THAILAND,14.05,101.367,6
829,484310,"NAKHON RATCHASIMA",THAILAND,14.967,102.083,188
830,484316,"KORAT AB (USAF)",THAILAND,14.933,102.083,225
831,484320,SURIN,THAILAND,14.883,103.5,147
832,484500,KANCHANABURI,THAILAND,14.017,99.533,29
833,484550,"BANGKOK METROPOLIS",THAILAND,13.733,100.567,4
834,484560,"DON MUANG",THAILAND,13.917,100.6,12
835,484590,"CHON BURI",THAILAND,13.367,100.983,2
836,484600,"KO SICHANG",THAILAND,13.167,100.8,26
837,484610,PHATTHAYA,THAILAND,12.917,100.867,61
838,484620,ARANYAPRATHET,THAILAND,13.7,102.583,49
839,484650,PHETCHABURI,THAILAND,13.15,100.067,4
840,484750,"HUA HIN",THAILAND,12.583,99.95,6
841,484770,SATTAHIP,THAILAND,12.683,100.983,18
842,484775,"U-TAPHAO INTL(NAVY)",THAILAND,12.683,101,18
843,484780,RAYONG,THAILAND,12.633,101.35,5
844,485000,"PRACHUAP KHIRIKHAN",THAILAND,11.817,99.817,5
845,485010,"KHLONG YAI",THAILAND,11.767,102.883,4
846,485170,CHUMPHON,THAILAND,10.483,99.183,5
847,485320,RANONG,THAILAND,9.983,98.617,8
848,485500,"KO SAMUI",THAILAND,9.467,100.05,7
849,485510,"SURAT THANI",THAILAND,9.117,99.15,11
850,485576,KRABI,THAILAND,8.1,98.983,25
851,485577,SAMUI,THAILAND,9.55,100.067,20
852,485640,PHUKET,THAILAND,7.883,98.4,3
853,485650,"PHUKET AIRPORT",THAILAND,8.132,98.317,9
854,485660,"KO LANTA",THAILAND,7.533,99.05,3
855,485670,TRANG,THAILAND,7.517,99.617,16
856,485680,SONGKHLA,THAILAND,7.2,100.617,9
857,485690,"HAT YAI",THAILAND,6.917,100.433,35
858,485800,PATTANI,THAILAND,6.783,101.15,9
859,485830,NARATHIWAT,THAILAND,6.417,101.817,5
860,486000,LANGKAWI,MALAYSIA,6.333,99.733,7
861,486010,"PENANG/BAYAN LEPAS",MALAYSIA,5.3,100.267,4
862,486020,BUTTERWORTH,MALAYSIA,5.467,100.383,4
863,486021,MERSING,MALAYSIA,2.45,103.833,45
864,486022,"SULTAN ABDUL HALIM",MALAYSIA,6.183,100.4,5
865,486023,"SULTAN AZLAN SHAH",MALAYSIA,4.567,101.083,41
866,486030,"ALOR STAR",MALAYSIA,6.2,100.4,5
867,486150,"KOTA BHARU",MALAYSIA,6.167,102.283,5
868,486180,"KUALA TRENGGANU",MALAYSIA,5.383,103.1,6
869,486190,"KUALA TRENGGANU/CLI",MALAYSIA,5.333,103.133,36
870,486200,SITIAWAN,MALAYSIA,4.217,100.7,8
871,486250,IPOH,MALAYSIA,4.567,101.1,40
872,486470,"KUALA LUMPUR SUBANG",MALAYSIA,3.117,101.55,22
873,486475,"SULTAN ABDUL AZIZ S",MALAYSIA,3.133,101.55,28
874,486500,"KUALA LUMPUR INTL",MALAYSIA,2.717,101.7,17
875,486570,KUANTAN,MALAYSIA,3.783,103.217,16
876,486650,MALACCA,MALAYSIA,2.267,102.25,9
877,486740,MERSING,MALAYSIA,2.45,103.833,45
878,486790,"JOHORE BHARU/SENAI",MALAYSIA,1.633,103.667,40
879,486940,"SINGAPORE/PAYA LEBA",SINGAPORE,1.367,103.917,32
880,486980,"SINGAPORE/CHANGI AI",SINGAPORE,1.367,103.983,16
881,486990,SELETAR,SINGAPORE,1.417,103.867,11
882,488030,"LAO CAI",VIETNAM,22.5,103.967,97
883,488060,"SON LA",VIETNAM,21.333,103.9,676
884,488080,"CAO BANG",VIETNAM,22.667,106.25,243
885,488100,"BAC CAN",VIETNAM,22.15,105.833,176
886,488200,"HA NOI",VIETNAM,21.033,105.8,6
887,488230,"NAM DINH",VIETNAM,20.433,106.15,3
888,488260,"PHU LIEN",VIETNAM,20.8,106.633,116
889,488300,"LANG SON",VIETNAM,21.833,106.767,263
890,488390,"BACH LONG VI",VIETNAM,20.133,107.717,56
891,488400,"THANH HOA",VIETNAM,19.75,105.783,5
892,488450,VINH,VIETNAM,18.667,105.683,6
893,488460,"HA TINH",VIETNAM,18.35,105.9,3
894,488480,"DONG HOI",VIETNAM,17.483,106.6,8
895,488490,"DONG HA",VIETNAM,16.817,107.1,25
896,488510,"QUANG TRI",VIETNAM,16.733,107.183,6
897,488515,"CAMP EVANS",VIETNAM,16.55,107.383,30
898,488520,HUE,VIETNAM,16.433,107.583,9
899,488525,"L.Z. SALLY",VIETNAM,16.517,107.467,0
900,488526,"CAMP EAGLE",VIETNAM,16.4,107.633,38
901,488550,"DA NANG",VIETNAM,16.067,108.35,7
902,488561,"MARBLE MOUNTAIN",VIETNAM,16.033,108.25,9.1
903,488600,"HOANG SA (PATTLE)",VIETNAM,16.55,111.617,6
904,488630,"QUANG NGAI",VIETNAM,15.133,108.783,9
905,488635,"DUC PHO",VIETNAM,14.817,108.967,11
906,488640,"CHU LAI",VIETNAM,15.417,108.7,8
907,488660,"PLEIKU CITY",VIETNAM,13.983,108,801
908,488665,"CAMP ENARI",VIETNAM,13.85,108.05,835
909,488671,"AN KHE",VIETNAM,13.967,108.667,421
910,488676,"PHU CAT",VIETNAM,13.95,109.05,34
911,488685,"L.Z. ENGLISH",VIETNAM,14.467,109.033,30
912,488695,KONTUM,VIETNAM,14.35,108.017,595
913,488700,"QUY NHON",VIETNAM,13.767,109.217,6
914,488730,TUY-HOA,VIETNAM,13.083,109.283,11
915,488750,BANMETHUOT,VIETNAM,12.683,108.083,537
916,488770,"NHA TRANG",VIETNAM,12.217,109.217,4
917,488810,"BECAME STN 488811",VIETNAM,11.75,108.383,962
918,488815,"DALAT/CAM LY",VIETNAM,11.95,108.417,1517
919,488840,"BAO-LOC (BLAO)",VIETNAM,11.467,107.8,850
920,488870,"PHAN THIET",VIETNAM,10.933,108.1,5
921,488885,"PHUOC LONG/SONG BE",VIETNAM,11.817,106.967,243
922,488896,"PHAN RANG",VIETNAM,11.633,108.95,31
923,488910,"DAU TIENG",VIETNAM,11.267,106.317,16
924,488915,"TAY NINH WEST",VIETNAM,11.317,106.067,8
925,488925,"PHU LOI",VIETNAM,11,106.7,34
926,488926,PHUOC-VINH,VIETNAM,11.3,106.8,58
927,488935,"CU CHI",VIETNAM,10.983,106.517,12
928,488960,"DATSAV3 VIRT STATION (VIETNAM)",VIETNAM,21.517,107.967,0
929,488962,SAIGON/BIEN/HOA,VIETNAM,10.967,106.817,11
930,488970,"CAM RANH BAY",VIETNAM,12,109.217,14
931,489000,"TAN SON HOA",VIETNAM,10.817,106.667,5
932,489005,DIAN,VIETNAM,10.9,106.75,32
933,489006,"QUAN LOI",VIETNAM,11.667,106.667,167
934,489015,"LONG THANH (NORTH)",VIETNAM,10.833,106.967,41
935,489041,VUNGTAU,VIETNAM,10.367,107.1,4
936,489070,"RACH GIA",VIETNAM,10,105.083,3
937,489100,"VINH LONG",VIETNAM,10.25,105.95,3
938,489105,"TAN AN",VIETNAM,10.55,106.4,3
939,489111,"PHONG DINH/CAN THO",VIETNAM,10.05,105.767,2
940,489125,"BINH THUY/PHONG DIN",VIETNAM,10.083,105.717,2
941,489130,"BA-XUYEN/SOC TRANG",VIETNAM,9.6,105.967,5
942,489140,"CA MAU",VIETNAM,9.183,105.15,2
943,489170,"PHU QUOC",VIETNAM,10.217,103.967,4
944,489180,"CON SON",VIETNAM,8.683,106.6,9
945,489300,LUANG-PRABANG,LAOS,19.883,102.133,305
946,489350,"PLAINE DES JARRES",LAOS,19.467,103.133,1050
947,489400,VIENTIANE,LAOS,17.95,102.567,171
948,489470,SAVANNAKHET,LAOS,16.55,104.65,145
949,489480,SENO,LAOS,16.667,105,185
950,489550,PAKSE,LAOS,15.117,105.783,102
951,489660,SIEMREAP,CAMBODIA,13.367,103.85,15
952,489910,PHNOM-PENH/POCHENTO,CAMBODIA,11.55,104.85,10
953,501360,MOHE,CHINA,52.133,122.517,433
954,503530,HUMA,CHINA,51.717,126.65,179
955,504340,TULIHE,CHINA,50.45,121.7,733
956,504680,AIHUI,CHINA,50.25,127.45,166
957,505270,HAILAR,CHINA,49.217,119.75,611
958,505480,XIAOERGOU,CHINA,49.2,123.717,288
959,505570,NENJIANG,CHINA,49.167,125.233,243
960,505640,SUNWU,CHINA,49.433,127.35,235
961,506030,"XIN BARAG YOUQI",CHINA,48.667,116.817,556
962,506320,BUGT,CHINA,48.767,121.917,739
963,506580,KESHAN,CHINA,48.05,125.883,237
964,507270,ARXAN,CHINA,47.167,119.933,997
965,507450,QIQIHAR,CHINA,47.383,123.917,148
966,507560,HAILUN,CHINA,47.433,126.967,240
967,507740,YICHUN,CHINA,47.717,128.9,232
968,507880,FUJIN,CHINA,47.233,131.983,65
969,508440,TAILAI,CHINA,46.4,123.417,150
970,508540,ANDA,CHINA,46.383,125.317,150
971,508620,TIE-LI,CHINA,46.983,128.067,264
972,508880,BAOQING,CHINA,46.317,132.183,83
973,509150,ULIASTAI,CHINA,45.517,116.967,840
974,509490,"QIAN GORLOS",CHINA,45.083,124.867,136
975,509530,HARBIN,CHINA,45.75,126.767,143
976,509630,TONGHE,CHINA,45.967,128.733,110
977,509680,SHANGZHI,CHINA,45.217,127.967,191
978,509780,JIXI,CHINA,45.283,130.949,234
979,509830,HULIN,CHINA,45.767,132.967,103
980,510530,"KABA HE",CHINA,48.05,86.35,534
981,510760,ALTAY,CHINA,47.733,88.083,737
982,510870,FUYUN,CHINA,46.983,89.517,827
983,511330,TACHENG,CHINA,46.733,83,535
984,511560,HOBOKSAR,CHINA,46.783,85.717,1294
985,512320,"PA-ERH-LU-K`O MTN",CHINA,45.95,82.567,1067
986,512430,KARAMAY,CHINA,45.6,84.85,428
987,512880,"BAYTIK SHAN",CHINA,45.367,90.533,1651
988,513340,JINGHE,CHINA,44.617,82.9,321
989,513460,KUYTUN,CHINA,44.433,84.967,442
990,513560,SHIHEZI,CHINA,44.3,86.033,457
991,513790,QITAI,CHINA,44.017,89.567,794
992,514310,YINING,CHINA,43.95,81.333,664
993,514630,"WU LU MU QI",CHINA,43.8,87.65,947
994,514635,DIWOPU,CHINA,43.9,87.467,664
995,514670,BALGUNTAY,CHINA,42.667,86.333,1753
996,514950,SHISANJIANFANG,CHINA,43.217,91.733,792
997,515420,BAYANBULAK,CHINA,43.033,84.15,2459
998,515670,YANQI,CHINA,42.05,86.567,1097
999,515730,TURPAN,CHINA,42.933,89.2,37
1000,516280,WEN-SU,CHINA,41.267,80.233,1286
1001,516440,KUQA,CHINA,41.717,82.95,1100
1002,516560,KORLA,CHINA,41.75,86.133,933
1003,517090,KASHI,CHINA,39.467,75.983,1291
1004,517110,AKQI,CHINA,40.933,78.45,1986
1005,517160,BACHU,CHINA,39.8,78.567,1117
1006,517300,ALAR,CHINA,40.5,81.05,1013
1007,517470,TAZHONG,CHINA,39,83.667,1099
1008,517650,TIKANLIK,CHINA,40.633,87.7,847
1009,517770,RUOQIANG,CHINA,39.033,88.167,889
1010,518110,SHACHE,CHINA,38.433,77.267,1232
1011,518180,PISHAN,CHINA,37.617,78.283,1376
1012,518280,HOTAN,CHINA,37.133,79.933,1375
1013,518390,MINFENG,CHINA,37.067,82.717,1409
1014,518480,ANDIR,CHINA,37.933,83.65,1264
1015,518550,QIEMO/QARQAN,CHINA,38.15,85.55,1248
1016,518860,MANGNAI,CHINA,38.25,90.85,2945
1017,519310,YUTIAN/KERIYA,CHINA,36.867,81.7,1554
1018,521120,NAOMAOHU,CHINA,43.6,95.133,469
1019,521180,YIWU,CHINA,43.267,94.7,1729
1020,522030,HAMI,CHINA,42.817,93.517,739
1021,522670,"EJIN QI",CHINA,41.95,101.067,941
1022,523130,XING-XING-XIA,CHINA,41.783,95.133,1935
1023,523230,"MAZONG SHAN",CHINA,41.8,97.033,1770
1024,523780,GUAIZIHU,CHINA,41.367,102.367,960
1025,523910,PANG-TING-TO-TO-KAI,CHINA,41.75,103.967,1463
1026,524180,DUNHUANG,CHINA,40.15,94.683,1140
1027,524240,AN-XI,CHINA,40.5,96,1177
1028,524360,YUMENZHEN,CHINA,40.267,97.033,1527
1029,524410,BEI-SHAN,CHINA,40.717,98.617,1554
1030,524460,SHUANGCHENGTZU,CHINA,40.4,99.8,1158
1031,524950,"BAYAN MOD",CHINA,40.75,104.5,1329
1032,525330,JIUQUAN,CHINA,39.767,98.483,1478
1033,525331,ZHONGCHUAN,CHINA,36.017,103.75,1996
1034,525760,LAI-YEN-CH`IH,CHINA,39.383,102.833,1383
1035,526020,LENGHU,CHINA,38.833,93.383,2771
1036,526330,TUO-LE,CHINA,38.8,98.417,609
1037,526510,ZHANG-YE/SOUTH,CHINA,38.817,100.4,1550
1038,526520,ZHANGYE,CHINA,38.933,100.433,1483
1039,526610,SHAN-DAN,CHINA,38.8,101.083,1760
1040,526740,JIN-CHANG,CHINA,38.467,102.183,1676
1041,526810,MINQIN,CHINA,38.633,103.083,1367
1042,527070,T`A-ERH-TING,CHINA,37.067,92.867,2712
1043,527130,DA-QAIDAM,CHINA,37.85,95.367,3174
1044,527370,DELINGHA,CHINA,37.367,97.367,2982
1045,527540,GANGCA,CHINA,37.333,100.133,3302
1046,527650,HAO-MEN,CHINA,37.367,101.617,2682
1047,527870,WUSHAOLING,CHINA,37.2,102.867,3044
1048,528180,GOLMUD,CHINA,36.417,94.9,2809
1049,528250,NUO-MU-HONG,CHINA,36.45,96.467,2804
1050,528360,DULAN,CHINA,36.3,98.1,3192
1051,528420,CHA-KA,CHINA,36.783,99.083,2925
1052,528560,GONGHE,CHINA,36.35,100.783,2743
1053,528660,XINING,CHINA,36.617,101.767,2296
1054,529080,WUDAOLIANG,CHINA,35.217,93.083,4613
1055,529550,GUINAN,CHINA,35.583,100.75,3123
1056,529570,TONGDE,CHINA,35.267,100.65,3290
1057,529830,"YU ZHONG",CHINA,35.867,104.15,1875
1058,529960,HUAJIALING,CHINA,35.383,105,2450
1059,530680,ERENHOT,CHINA,43.65,112,966
1060,530830,"NARAN BULAG",CHINA,44.617,114.15,1183
1061,531490,MANDAL,CHINA,42.533,110.133,1223
1062,531920,"ABAG QI",CHINA,44.017,114.95,1128
1063,532310,HAILS,CHINA,41.45,106.383,1510
1064,532760,JURH,CHINA,42.4,112.9,1152
1065,533360,HALIUT,CHINA,41.567,108.517,1290
1066,533520,BAILING-MIAO,CHINA,41.7,110.433,1377
1067,533910,HUADE,CHINA,41.9,114,1484
1068,534460,BAOTOU,CHINA,40.567,109.983,940
1069,534630,HOHHOT,CHINA,40.817,111.683,1065
1070,534800,JINING,CHINA,41.033,113.067,1416
1071,534870,DATONG,CHINA,40.1,113.333,1069
1072,535020,JARTAI,CHINA,39.783,105.75,1143
1073,535130,LINHE,CHINA,40.767,107.4,1041
1074,535290,"OTOG QI",CHINA,39.1,107.983,1381
1075,535430,DONGSHENG,CHINA,39.833,109.983,1459
1076,535640,HEQU,CHINA,39.383,111.15,861
1077,535880,"WUTAI SHAN",CHINA,38.95,113.517,2210
1078,535930,"YU XIAN",CHINA,39.833,114.567,910
1079,536140,YINCHUAN,CHINA,38.467,106.2,1112
1080,536460,YULIN,CHINA,38.233,109.7,1058
1081,536730,YUANPING,CHINA,38.75,112.7,838
1082,536980,SHIJIAZHUANG,CHINA,38.033,114.417,81
1083,537050,ZHONGNING,CHINA,37.483,105.683,1193
1084,537230,YANCHI,CHINA,37.8,107.383,1356
1085,537380,PIN-KOU-MEN,CHINA,37.15,108.383,1438
1086,537640,LISHI,CHINA,37.5,111.1,951
1087,537720,TAIYUAN,CHINA,37.783,112.55,779
1088,537870,YUSHE,CHINA,37.067,112.983,1042
1089,537980,XINGTAI,CHINA,37.067,114.5,78
1090,538210,HUNG-TE,CHINA,36.767,107.2,1322
1091,538450,"YAN AN",CHINA,36.6,109.5,959
1092,538630,JIEXIU,CHINA,37.033,111.917,745
1093,538870,CHANG-ZHI,CHINA,36.2,113.117,914
1094,538980,ANYANG,CHINA,36.05,114.4,64
1095,539150,PINGLIANG,CHINA,35.55,106.667,1348
1096,539230,XIFENGZHEN,CHINA,35.733,107.633,1423
1097,539290,CHANG-WU,CHINA,35.217,107.8,1219
1098,539470,TONGCHUAN,CHINA,35.167,109.05,914
1099,539590,YUNCHENG,CHINA,35.05,111.05,365
1100,539750,YANGCHENG,CHINA,35.483,112.4,659
1101,540120,"XI UJIMQIN QI",CHINA,44.583,117.6,997
1102,540260,"JARUD QI",CHINA,44.567,120.9,266
1103,540270,LINDONG,CHINA,43.983,119.4,485
1104,540490,CHANGLING,CHINA,44.25,123.967,190
1105,540940,MUDANJIANG,CHINA,44.567,129.6,242
1106,540960,SUIFENHE,CHINA,44.383,131.15,498
1107,541020,"XILIN HOT",CHINA,43.95,116.117,1004
1108,541150,LINXI,CHINA,43.6,118.067,800
1109,541350,TONGLIAO,CHINA,43.6,122.267,180
1110,541570,SIPING,CHINA,43.183,124.333,167
1111,541610,CHANGCHUN,CHINA,43.9,125.217,238
1112,541611,"HARBIN TAIPING",CHINA,46.017,126.583,143
1113,541860,DUNHUA,CHINA,43.367,128.199,525
1114,542080,DUOLUN,CHINA,42.183,116.467,1247
1115,542180,CHIFENG,CHINA,42.267,118.967,572
1116,542260,BUGT,CHINA,42.333,120.7,401
1117,542360,ZHANGWU,CHINA,42.417,122.533,84
1118,542370,FUXIN,CHINA,42,121.633,182
1119,542590,QINGYUAN,CHINA,42.1,124.95,235
1120,542730,HUADIAN,CHINA,42.983,126.75,264
1121,542920,YANJI,CHINA,42.867,129.5,178
1122,543080,FENGNING,CHINA,41.217,116.633,661
1123,543110,WEICHANG,CHINA,41.933,117.75,844
1124,543240,CHAOYANG,CHINA,41.55,120.45,176
1125,543370,JINZHOU,CHINA,41.133,121.117,70
1126,543420,SHENYANG,CHINA,41.733,123.517,43
1127,543424,TAOXIAN,CHINA,41.633,123.483,62
1128,543460,BENXI,CHINA,41.317,123.783,185
1129,543740,LINJIANG,CHINA,41.717,126.917,333
1130,543770,JIAN,CHINA,41.1,126.15,179
1131,543860,CHANGBAI,CHINA,41.35,128.167,1018
1132,544010,ZHANGJIAKOU,CHINA,40.783,114.883,726
1133,544050,HUAILAI,CHINA,40.4,115.5,538
1134,544230,CHENGDE,CHINA,40.983,117.95,386
1135,544360,QINGLONG,CHINA,40.4,118.95,228
1136,544490,SHAN-HAI-KUAN,CHINA,40,119.75,27
1137,544710,YINGKOU,CHINA,40.667,122.2,4
1138,544830,CAOHEKOU,CHINA,40.883,123.9,235
1139,544930,KUANDIAN,CHINA,40.717,124.783,261
1140,544970,DANDONG,CHINA,40.05,124.333,14
1141,545110,BEIJING,CHINA,39.933,116.283,55
1142,545270,TIANJIN,CHINA,39.1,117.167,5
1143,545273,BINHAI,CHINA,39.117,117.333,2
1144,545340,TANGSHAN,CHINA,39.667,118.15,29
1145,545390,LETING,CHINA,39.433,118.9,12
1146,545870,"HAIYANG DAO",CHINA,39.05,123.217,10
1147,546020,BAODING,CHINA,38.85,115.567,19
1148,546160,CANGZHOU,CHINA,38.333,116.833,11
1149,546180,POTOU,CHINA,38.083,116.55,13
1150,546560,"TUOJI ISLAND",CHINA,38.167,120.767,106
1151,546620,DALIAN,CHINA,38.9,121.633,97
1152,547050,NANGONG,CHINA,37.367,115.383,42
1153,547140,DEZHOU,CHINA,37.433,116.317,22
1154,547150,LINGXIAN,CHINA,37.333,116.567,19
1155,547250,HUIMIN,CHINA,37.5,117.533,12
1156,547510,"CHANG DAO",CHINA,37.933,120.717,40
1157,547530,LONGKOU,CHINA,37.617,120.317,5
1158,547760,CHENGSHANTOU,CHINA,37.4,122.683,47
1159,548080,XINXIAN,CHINA,36.233,115.667,38
1160,548230,JINAN,CHINA,36.6,117.05,169
1161,548260,"TAI SHAN",CHINA,36.25,117.1,1536
1162,548360,YIYUAN,CHINA,36.183,118.15,302
1163,548430,WEIFANG,CHINA,36.767,119.183,22
1164,548570,QINGDAO,CHINA,36.067,120.333,77
1165,548630,HAIYANG,CHINA,36.767,121.167,64
1166,549060,HEZE/CAOZHOU,CHINA,35.25,115.433,51
1167,549090,DINGTAO,CHINA,35.067,115.567,49
1168,549160,YANZHOU,CHINA,35.567,116.85,53
1169,549290,FEZXZAN,CHINA,35.25,117.95,120
1170,549380,LINYI,CHINA,35.05,118.35,86
1171,549450,RIZHAO,CHINA,35.433,119.533,37
1172,552280,SHIQUANHE,CHINA,32.5,80.083,4280
1173,552790,BAINGOIN,CHINA,31.367,90.017,4701
1174,552990,NAGQU,CHINA,31.483,92.067,4508
1175,554720,XAINZA,CHINA,30.95,88.633,4670
1176,555780,XIGAZE,CHINA,29.25,88.883,3837
1177,555910,LHASA,CHINA,29.667,91.133,3650
1178,556640,TINGRI,CHINA,28.633,87.083,4300
1179,556960,LHUNZE,CHINA,28.417,92.467,3861
1180,557730,PAGRI,CHINA,27.733,89.083,4300
1181,560040,TUOTUOHE,CHINA,34.217,92.433,4535
1182,560180,ZADOI,CHINA,32.9,95.3,4068
1183,560210,QUMARLEB,CHINA,34.133,95.783,4176
1184,560290,YUSHU,CHINA,33.017,97.017,3682
1185,560330,MADOI,CHINA,34.917,98.217,4273
1186,560340,QINGSHUI-HE,CHINA,33.8,97.133,4419
1187,560460,DARLAG,CHINA,33.75,99.65,3968
1188,560650,HENAN,CHINA,34.733,101.6,3501
1189,560670,JIGZHI,CHINA,33.467,101.483,3350
1190,560790,RUOERGAI,CHINA,33.583,102.967,3441
1191,560800,HEZUO,CHINA,35,102.9,2910
1192,560930,WU-SHAN,CHINA,34.717,104.883,1371
1193,560960,WUDU,CHINA,33.4,104.917,1079
1194,561060,"SOG XIAN",CHINA,31.883,93.783,4024
1195,561160,DENGQEN,CHINA,31.417,95.6,3874
1196,561250,NANGQEN,CHINA,32.25,96.217,4145
1197,561370,QAMDO,CHINA,31.15,97.167,3307
1198,561440,DEGE,CHINA,31.8,98.567,3185
1199,561460,GARZE,CHINA,31.617,100,3394
1200,561520,SERTAR,CHINA,32.283,100.333,3896
1201,561670,DAWU,CHINA,30.983,101.117,2959
1202,561720,BARKAM,CHINA,31.9,102.233,2666
1203,561730,MA-TANG,CHINA,31.85,102.7,3422
1204,561780,XIAO-JIN,CHINA,31.017,102.367,2426
1205,561820,SONGPAN,CHINA,32.65,103.567,2852
1206,561870,WENJIANG,CHINA,30.7,103.833,541
1207,561930,PINGWU,CHINA,32.417,104.517,894
1208,561960,MIANYANG,CHINA,31.45,104.733,522
1209,562470,BATANG,CHINA,30,99.1,2589
1210,562570,LITANG,CHINA,30,100.267,3950
1211,562870,YAAN,CHINA,29.983,103,629
1212,562940,CHENGDU,CHINA,30.667,104.017,508
1213,563120,NYINGCHI,CHINA,29.567,94.467,3001
1214,563570,DAOCHENG,CHINA,29.05,100.3,3729
1215,563740,KANGDING,CHINA,30.05,101.967,2617
1216,563850,"EMEI SHAN",CHINA,29.517,103.333,3049
1217,564440,DEQEN,CHINA,28.45,98.883,3320
1218,564620,JIULONG,CHINA,29,101.5,2994
1219,564920,YIBIN,CHINA,28.8,104.6,342
1220,565710,XICHANG,CHINA,27.9,102.267,1599
1221,565860,ZHAOTONG,CHINA,27.333,103.75,1950
1222,566510,LIJING,CHINA,26.833,100.467,2394
1223,566710,HUILI,CHINA,26.65,102.25,1788
1224,566840,HUIZE,CHINA,26.417,103.283,2110
1225,566910,WEINING,CHINA,26.867,104.283,2236
1226,567390,TENGCHONG,CHINA,25.117,98.483,1649
1227,567480,BAOSHAN,CHINA,25.117,99.183,1649
1228,567510,DALI,CHINA,25.7,100.183,1992
1229,567630,YUANMOU,CHINA,25.733,101.867,1120
1230,567680,CHUXIONG,CHINA,25.017,101.517,1820
1231,567780,KUNMING,CHINA,25.017,102.683,1892
1232,567860,ZHANYI,CHINA,25.583,103.833,1900
1233,568380,RUILI,CHINA,24.017,97.833,776
1234,568860,LUXI,CHINA,24.533,103.767,1708
1235,569450,MENGDING,CHINA,23.567,99.083,512
1236,569460,GENGMA,CHINA,23.55,99.4,1104
1237,569510,LINCANG,CHINA,23.95,100.217,1503
1238,569540,LANCANG,CHINA,22.567,99.933,1054
1239,569590,JINGHONG,CHINA,22,100.783,579
1240,569640,SIMAO,CHINA,22.767,100.983,1303
1241,569660,YUANJIANG,CHINA,23.6,101.983,398
1242,569690,MENGLA,CHINA,21.5,101.583,633
1243,569770,JIANGCHENG,CHINA,22.617,101.817,1121
1244,569850,MENGZI,CHINA,23.383,103.383,1302
1245,569860,DEHOUJIE,CHINA,23.583,103.867,1423
1246,570060,TIANSHUI,CHINA,34.583,105.75,1143
1247,570140,BEIDAO,CHINA,34.567,105.867,1086
1248,570160,BAOJI,CHINA,34.35,107.133,610
1249,570230,CUI-MU,CHINA,34.8,107.867,914
1250,570250,FENGXIANG,CHINA,34.517,107.383,781
1251,570360,XIAN,CHINA,34.3,108.933,398
1252,570460,"HUA SHAN",CHINA,34.483,110.083,2063
1253,570670,LUSHI,CHINA,34.05,111.033,570
1254,570710,MENGJIN,CHINA,34.817,112.433,333
1255,570730,LUO-YANG,CHINA,34.667,112.417,155
1256,570830,ZHENGZHOU,CHINA,34.717,113.65,111
1257,571060,CHENG-XIAN,CHINA,33.75,105.75,1128
1258,571270,HANZHONG,CHINA,33.067,107.033,509
1259,571310,JINGHE,CHINA,34.433,108.967,411
1260,571340,WEN-HUANG-PING,CHINA,33.45,108.25,548
1261,571440,CHEN-AN,CHINA,33.417,109.15,610
1262,571780,NANYANG,CHINA,33.033,112.583,131
1263,571930,XIHUA,CHINA,33.783,114.517,53
1264,572370,WANYUAN,CHINA,32.067,108.033,674
1265,572450,ANKANG,CHINA,32.717,109.033,291
1266,572590,FANGXIAN,CHINA,32.033,110.767,435
1267,572650,GUANGHUA,CHINA,32.383,111.667,91
1268,572790,ZAOYANG,CHINA,32.15,112.667,127
1269,572900,ZHUMADIAN,CHINA,33,114.017,83
1270,572970,XINYANG,CHINA,32.133,114.05,115
1271,573060,LANGZHONG,CHINA,31.583,105.967,385
1272,573280,"DA XIAN",CHINA,31.2,107.5,344
1273,573480,FENGJIE,CHINA,31.017,109.533,303
1274,573780,ZHONGXIANG,CHINA,31.167,112.567,66
1275,573990,MACHENG,CHINA,31.183,114.967,59
1276,574110,NANCHONG,CHINA,30.8,106.083,310
1277,574260,LIANGPING,CHINA,30.683,107.8,455
1278,574470,ENSHI,CHINA,30.283,109.467,458
1279,574610,YICHANG,CHINA,30.7,111.3,134
1280,574760,JIANGLING,CHINA,30.333,112.183,33
1281,574940,WUHAN,CHINA,30.617,114.133,23
1282,574941,"SANYA FENGHUANG",CHINA,18.3,109.417,28
1283,575040,NEIJIANG,CHINA,29.583,105.05,357
1284,575150,CHONG-QING,CHINA,29.517,106.483,351
1285,575160,CHONGQING,CHINA,29.583,106.467,260
1286,575540,SANGZHI,CHINA,29.4,110.167,322
1287,575840,YUEYANG,CHINA,29.383,113.083,52
1288,575980,XIUSHUI,CHINA,29.033,114.583,147
1289,576020,LUZHOU,CHINA,28.883,105.433,336
1290,576040,NAXI,CHINA,28.783,105.383,364
1291,576220,"JINFO SHAN (MOUNT)",CHINA,28.95,107.15,1907
1292,576330,YOUYANG,CHINA,28.833,108.767,665
1293,576550,YUANLING,CHINA,28.467,110.4,143
1294,576620,CHANGDE,CHINA,29.05,111.683,35
1295,576790,CHANGSHA,CHINA,28.2,113.083,46
1296,576870,CHANGSHA,CHINA,28.233,112.867,68
1297,577070,BIJIE,CHINA,27.3,105.233,1511
1298,577130,ZUNYI,CHINA,27.7,106.883,845
1299,577310,SINAN,CHINA,27.95,108.25,418
1300,577450,ZHIJIANG,CHINA,27.45,109.683,273
1301,577660,SHAOYANG,CHINA,27.233,111.467,248
1302,577760,NANYUE,CHINA,27.3,112.7,1268
1303,577930,YICHUN,CHINA,27.8,114.383,129
1304,577990,JIAN,CHINA,27.117,114.967,78
1305,578160,GUIYANG,CHINA,26.583,106.733,1223
1306,578320,SANSUI,CHINA,26.967,108.667,631
1307,578450,TONGDAO,CHINA,26.167,109.783,397
1308,578530,WUGANG,CHINA,26.733,110.633,340
1309,578660,LINGLING,CHINA,26.233,111.617,174
1310,579020,XINGREN,CHINA,25.433,105.183,1379
1311,579160,LUODIAN,CHINA,25.433,106.767,441
1312,579220,DUSHAN,CHINA,25.833,107.55,971
1313,579320,RONGJIANG,CHINA,25.967,108.533,287
1314,579570,GUILIN,CHINA,25.333,110.3,166
1315,579720,CHENZHOU,CHINA,25.8,113.033,185
1316,579930,GANZHOU,CHINA,25.867,115,138
1317,580270,XUZHOU,CHINA,34.283,117.15,42
1318,580400,GANYU,CHINA,34.833,119.133,10
1319,581020,BOXIAN,CHINA,33.883,115.767,42
1320,581410,HUAIYIN,CHINA,33.667,119.033,14
1321,581440,QINGJIANG,CHINA,33.6,119.033,19
1322,581500,SHEYANG,CHINA,33.767,120.25,7
1323,582030,FUYANG,CHINA,32.867,115.733,33
1324,582080,GUSHI,CHINA,32.167,115.667,58
1325,582210,BENGBU,CHINA,32.95,117.367,22
1326,582380,NANJING,CHINA,32,118.8,7
1327,582510,DONGTAI,CHINA,32.85,120.283,5
1328,582650,LUSI,CHINA,32.067,121.6,10
1329,583140,HUOSHAN,CHINA,31.4,116.333,68
1330,583210,HEFEI,CHINA,31.867,117.233,36
1331,583211,PUDONG,CHINA,31.133,121.783,3
1332,583340,WU-HU,CHINA,31.333,118.35,20
1333,583380,WUHU,CHINA,31.333,118.35,16
1334,583430,CHANGZHOU,CHINA,31.767,119.95,15
1335,583450,LIYANG,CHINA,31.433,119.483,8
1336,583620,SHANGHAI,CHINA,31.4,121.467,4
1337,583670,SHANGHAI/HONGQIAO,CHINA,31.167,121.433,7
1338,584240,ANQING,CHINA,30.533,117.05,20
1339,584370,"HUANG SHAN",CHINA,30.133,118.15,1836
1340,584450,"TIANMU SHAN (MTNS)",CHINA,30.35,119.417,1494
1341,584570,HANGZHOU,CHINA,30.233,120.167,43
1342,584720,SHENGSI,CHINA,30.733,122.45,81
1343,584730,"SHENG SHANG",CHINA,30.717,122.817,197
1344,584770,DINGHAI,CHINA,30.033,122.117,37
1345,585060,"LU SHAN",CHINA,29.583,115.983,1165
1346,585270,JINGDEZHEN,CHINA,29.3,117.2,60
1347,585560,SHENGXIAN,CHINA,29.6,120.817,108
1348,585690,SHIPU,CHINA,29.2,121.95,127
1349,586060,NANCHANG,CHINA,28.6,115.917,50
1350,586330,"QU XIAN",CHINA,28.967,118.867,71
1351,586460,LISHUI,CHINA,28.45,119.917,60
1352,586530,"KUOCANG SHAN",CHINA,28.817,120.917,1371
1353,586590,WENZHOU,CHINA,28.017,120.667,7
1354,586600,LINHAI,CHINA,28.85,121.133,9
1355,586650,HONGJIA,CHINA,28.617,121.417,2
1356,586660,"DACHEN DAO",CHINA,28.45,121.883,84
1357,587150,NANCHENG,CHINA,27.583,116.65,82
1358,587250,SHAOWU,CHINA,27.333,117.467,219
1359,587260,"QIXIAN SHAN",CHINA,27.95,117.833,1415
1360,587300,WUYISHAN,CHINA,27.767,118.033,221
1361,587310,PUCHENG,CHINA,27.917,118.533,275
1362,587520,RUIAN,CHINA,27.783,120.65,38
1363,587540,FUDING,CHINA,27.333,120.2,38
1364,587650,"NANJI SHAN",CHINA,27.467,121.05,2
1365,588130,GUANGCHANG,CHINA,26.85,116.333,142
1366,588340,NANPING,CHINA,26.633,118,128
1367,588470,FUZHOU,CHINA,26.083,119.283,85
1368,588490,MAZU,TAIWAN,26.167,119.933,91
1369,588530,TAISHAN,CHINA,27,120.7,107
1370,589110,CHANGTING,CHINA,25.85,116.367,311
1371,589210,YONGAN,CHINA,25.967,117.35,204
1372,589260,"ZHANG PING",CHINA,25.3,117.4,203
1373,589270,LONGYAN,CHINA,25.1,117.017,341
1374,589310,"JIUXIAN SHAN",CHINA,25.717,118.1,1651
1375,589440,PINGTAN,CHINA,25.517,119.783,31
1376,589650,TAOYUAN,TAIWAN,25.05,121.217,48
1377,589680,TAIBEI,TAIWAN,25.033,121.517,9
1378,589740,"PENGJIA YU",CHINA,25.633,122.067,102
1379,590070,GUANGNAN,CHINA,24.067,105.067,1251
1380,590230,HECHI,CHINA,24.7,108.05,214
1381,590460,LIUZHOU,CHINA,24.35,109.4,97
1382,590580,MENGSHAN,CHINA,24.2,110.517,145
1383,590720,"LIAN XIAN",CHINA,24.783,112.383,98
1384,590820,SHAOGUAN,CHINA,24.8,113.583,68
1385,590870,FOGANG,CHINA,23.867,113.533,68
1386,590960,LIANPING,CHINA,24.367,114.483,214
1387,591020,XUNWU,CHINA,24.95,115.65,299
1388,591170,"MEI XIAN",CHINA,24.3,116.117,84
1389,591340,XIAMEN,CHINA,24.483,118.083,139
1390,591580,TAIZHONG,TAIWAN,24.15,120.683,78
1391,592090,NAPO,CHINA,23.3,105.95,794
1392,592110,BAISE,CHINA,23.9,106.6,177
1393,592540,GUIPING,CHINA,23.4,110.083,44
1394,592650,WUZHOU,CHINA,23.483,111.3,120
1395,592780,GAOYAO,CHINA,23.05,112.467,12
1396,592870,GUANGZHOU,CHINA,23.167,113.333,42
1397,592871,"CHANGSHA HUANGHUA",CHINA,28.233,112.867,67
1398,592930,HEYUAN,CHINA,23.8,114.733,41
1399,593160,SHANTOU,CHINA,23.4,116.683,3
1400,593450,MAGONG,TAIWAN,23.517,119.567,22
1401,593530,"ALI SHAN",TAIWAN,23.517,120.8,2408
1402,593580,TAINAN,TAIWAN,23,120.217,14
1403,593620,HUALIAN,TAIWAN,24.017,121.617,14
1404,594170,LONGZHOU,CHINA,22.367,106.75,129
1405,594310,NANNING,CHINA,22.633,108.217,126
1406,594560,XINYI,CHINA,22.35,110.933,84
1407,594780,TAI-SHAN,CHINA,22.267,112.783,46
1408,594930,SHENZHEN,CHINA,22.55,114.1,18
1409,595010,SHANWEI,CHINA,22.783,115.367,5
1410,595590,HENGCHUN,TAIWAN,22,120.75,24
1411,595620,TAIDONG,TAIWAN,22.75,121.15,10
1412,595670,"LAN YU",TAIWAN,22.033,121.55,325
1413,596320,QINZHOU,CHINA,21.95,108.617,6
1414,596440,BEIHAI,CHINA,21.483,109.1,16
1415,596470,"WEI-ZHOU ISLAND",CHINA,21.033,109.117,41
1416,596580,ZHANJIANG,CHINA,21.217,110.4,28
1417,596630,YANGJIANG,CHINA,21.867,111.967,22
1418,596730,"SHANGCHUAN DAO",CHINA,21.733,112.767,18
1419,597580,HAIKOU,CHINA,20.033,110.35,24
1420,597920,"DONGSHA DAO",CHINA,20.667,116.717,6
1421,598380,DONGFANG,CHINA,19.1,108.617,8
1422,598450,DANXIAN,CHINA,19.517,109.583,169
1423,598550,QIONGHAI,CHINA,19.233,110.467,25
1424,599480,YAXIAN,CHINA,18.233,109.517,7
1425,599970,"NANSHA DAO",CHINA,10.383,114.367,5
1426,690110,Q-WEST,IRAQ,35.75,43.25,229
1427,691000,"KOREAN VILLAGE",IRAQ,33.017,39.933,740
1428,691194,"AL ASAD AFLD",IRAQ,33.783,42.433,188
1429,691464,"ADANA/INCIRLIK AB",TURKEY,37,35.433,73
1430,692554,"Q WEST IRAQ",IRAQ,35.767,43.117,229
1431,697654,"AL SAHRA",IRAQ,34.667,43.533,139
1432,697774,"TALL AFAR",IRAQ,36.283,42.4,300
1433,697884,MOSUL,IRAQ,36.3,43.15,216
1434,697924,KIRKUK,IRAQ,35.467,44.35,323
1435,749238,"ONDAL INDIA",INDIA,23.616,87.2,86
1436,749313,"DAK TO VIETNAM AI",VIETNAM,14.666,107.8,602
1437,749331,"OKINAWA RYUKYU IS/YONTAN AB",JAPAN,26.383,127.75,76
1438,749347,"NANKING CHINA/TAI CHIAO AF",CHINA,32.083,118.75,25
1439,749348,"HANKOW CHINA",CHINA,30.583,114.25,37
1440,960011,"SRI AMAN/SIMANGGA",MALAYSIA,1.217,111.45,11
1441,960350,MEDAN/POLONIA,INDONESIA,3.567,98.683,25
1442,960870,"BATAM/HANG NADIM",INDONESIA,1.117,104.117,24
1443,961090,"PEKAN BARU/SIMPANGT",INDONESIA,0.467,101.45,31
1444,961790,SINGKEP/DABO,INDONESIA,-0.483,104.583,31
1445,962210,"PALEMBANG/ST. M. BA",INDONESIA,-2.9,104.7,10
1446,962370,"PANGKAL PINANG",INDONESIA,-2.167,106.133,33
1447,962950,"TANJUNG KARANG/RADI",INDONESIA,-5.1,105.183,96
1448,963150,"BRUNEI AIRPORT",BRUNEI,4.933,114.933,15
1449,963154,"BRUNEI INTL",BRUNEI,4.95,114.917,22
1450,963230,"KUALA BELAIT",INDONESIA,4.583,114.2,3
1451,964130,KUCHING,MALAYSIA,1.483,110.333,27
1452,964210,SIBU,MALAYSIA,2.333,111.833,31
1453,964410,BINTULU,MALAYSIA,3.2,113.033,5
1454,964490,MIRI,MALAYSIA,4.333,113.983,18
1455,964650,LABUAN,MALAYSIA,5.3,115.25,30
1456,964710,"KOTA KINABALU",MALAYSIA,5.933,116.05,3
1457,964770,KUDAT,MALAYSIA,6.917,116.833,5
1458,964810,TAWAU,MALAYSIA,4.267,117.883,20
1459,964910,SANDAKAN,MALAYSIA,5.9,118.067,13
1460,965810,PONTIANAK/SUPADIO,INDONESIA,-0.15,109.4,3
1461,966330,BALIKPAPAN/SEPINGGA,INDONESIA,-1.267,116.9,3
1462,966850,BANJARMASIN/SYAMSUD,INDONESIA,-3.433,114.75,20
1463,967430,JAKARTA/KEMAYORAN,INDONESIA,-6.15,106.85,5
1464,967470,"HALIM INTL(CIV/MIL)",INDONESIA,-6.25,106.9,30
1465,967490,JAKARTA/SOEKARNO-HA,INDONESIA,-6.117,106.65,8
1466,967810,BANDUNG/HUSEIN,INDONESIA,-6.9,107.583,740
1467,968050,CILACAP,INDONESIA,-7.733,109.017,6
1468,968810,"MADIUN/ISWAHYUD AFB",INDONESIA,-7.617,111.517,110
1469,969330,"SURABAYA/PERAK I",INDONESIA,-7.217,112.717,3
1470,969350,SURABAYA/JUANDA,INDONESIA,-7.367,112.767,3
1471,969870,BANYUWANGI,INDONESIA,-8.217,114.383,5
1472,970140,"MENADO/ SAM RATULAN",INDONESIA,1.533,124.917,80
1473,970480,GORONTALO/JALALUDDI,INDONESIA,0.517,123.067,2
1474,970720,PALU/MUTIARA,INDONESIA,-0.683,119.733,6
1475,971200,MAJENE,INDONESIA,-2.5,119,8
1476,971260,"MASAMBA/ANDI JEMMA",INDONESIA,-2.55,120.367,50
1477,971460,"KENDARI/WOLTER MONG",INDONESIA,-4.1,122.433,50
1478,971800,"UJUNG PANDANG/HASAN",INDONESIA,-5.067,119.55,14
1479,971925,"BALI DENPASAR NGURA",INDONESIA,-8.75,115.167,4
1480,972300,"DENPASAR/NGURAH RAI",INDONESIA,-8.75,115.167,1
1481,972400,MATARAM/SELAPARANG,INDONESIA,-8.533,116.067,3
1482,972600,"SUMBAWA BESAR/BRANG",INDONESIA,-8.433,117.417,3
1483,973000,"MAUMERE/WAI OTI",INDONESIA,-8.633,122.25,3
1484,973400,"WAINGAPU/MAU HAU",INDONESIA,-9.667,120.333,12
1485,974280,"DATSAV3 VIRT STATION (INDONESIA)",INDONESIA,-8.467,140.383,0
1486,974300,TERNATE/BABULLAH,INDONESIA,0.767,127.367,23
1487,975600,"BIAK/FRANS KAISIEPO",INDONESIA,-1.183,136.117,11
1488,977240,AMBON/PATTIMURA,INDONESIA,-3.7,128.083,12
1489,977900,NEIRA,INDONESIA,-4.533,129.9,4
1490,978100,TUAL/DUMATUBUN,INDONESIA,-5.683,132.75,12
1491,979000,SAUMLAKI/OLILIT,INDONESIA,-7.983,131.3,24
1492,981350,BASCO,PHILIPPINES,20.45,121.967,11
1493,982220,SINAIT,PHILIPPINES,17.883,120.45,58
1494,982230,LAOAG,PHILIPPINES,18.183,120.533,5
1495,982320,APARRI,PHILIPPINES,18.367,121.633,3
1496,983240,IBA,PHILIPPINES,15.333,119.967,5
1497,983250,DAGUPAN,PHILIPPINES,16.05,120.333,2
1498,983270,"CLARK AB",PHILIPPINES,15.167,120.567,155
1499,983275,"CLARK INTL",PHILIPPINES,15.183,120.55,151
1500,983280,BAGUIO,PHILIPPINES,16.417,120.6,1501
1501,983300,CABANATUAN,PHILIPPINES,15.483,120.967,32
1502,984250,MANILA,PHILIPPINES,14.583,120.983,13
1503,984260,"SUBIC BAY",PHILIPPINES,14.8,120.267,14
1504,984280,"SANGLEY POINT AB",PHILIPPINES,14.5,120.917,2.1
1505,984290,"NINOY AQUINO INTERN",PHILIPPINES,14.517,121,15
1506,984300,"SCIENCE GARDEN",PHILIPPINES,14.633,121.017,46
1507,984310,CALAPAN,PHILIPPINES,13.417,121.183,41
1508,984320,AMBULONG,PHILIPPINES,14.083,121.05,11
1509,984330,TANAY,PHILIPPINES,14.567,121.367,651
1510,984400,DAET,PHILIPPINES,14.133,122.983,4
1511,984440,LEGASPI,PHILIPPINES,13.133,123.733,17
1512,984460,VIRAC,PHILIPPINES,13.583,124.233,40
1513,984470,"CATANDUANES RADAR",PHILIPPINES,13.983,124.317,233
1514,985310,"SAN JOSE",PHILIPPINES,12.35,121.033,3
1515,985360,ROMBLON,PHILIPPINES,12.583,122.267,47
1516,985380,ROXAS,PHILIPPINES,11.583,122.75,4
1517,985430,MASBATE,PHILIPPINES,12.367,123.617,6
1518,985460,CATARMAN,PHILIPPINES,12.5,124.633,7
1519,985480,CATBALOGAN,PHILIPPINES,11.783,124.883,5
1520,985500,TACLOBAN,PHILIPPINES,11.25,125,3
1521,985530,BORONGAN,PHILIPPINES,11.65,125.433,3
1522,985580,GUIUAN,PHILIPPINES,11.033,125.733,60
1523,986180,"PUERTO PRINCESA",PHILIPPINES,9.75,118.733,15
1524,986370,ILOILO,PHILIPPINES,10.7,122.567,8
1525,986420,DUMAGUETE,PHILIPPINES,9.3,123.3,8
1526,986440,TAGBILARAN,PHILIPPINES,9.6,123.85,8
1527,986450,LAHUG,PHILIPPINES,10.333,123.9,35
1528,986460,MACTAN,PHILIPPINES,10.3,123.967,24
1529,986530,SURIGAO,PHILIPPINES,9.8,125.5,55
1530,987470,"LUMBIA AIRPORT",PHILIPPINES,8.433,124.283,188
1531,987480,"CAGAYAN DE ORO",PHILIPPINES,8.483,124.633,6
1532,987520,BUTUAN,PHILIPPINES,8.933,125.517,46
1533,987530,"DAVAO AIRPORT",PHILIPPINES,7.117,125.65,18
1534,987550,HINATUAN,PHILIPPINES,8.367,126.333,3
1535,988360,ZAMBOANGA,PHILIPPINES,6.9,122.067,6
1536,988510,"GEN. SANTOS",PHILIPPINES,6.117,125.183,15
